,Title,Address,City,State,PostalCode,Units,Target Open Date,Phase,Latitude,Longitude,Market,Submarket
0,Hotel Indigo,630 G St,Anchorage,AK,99501,178.0,,Planning,61.2162766,-149.8958114,"Alaska State Area, AK","Alaska State Area, AK"
1,Airport Hotel,Airport,Anchorage,AK,99502,150.0,,Pre-Planning,61.1758863,-149.9900792,"Alaska State Area, AK","Alaska State Area, AK"
2,Home 2 Suites Hotel,East of S. Maney Drive,Wasilla,AK,99654,107.0,,Planning,61.5808763,-149.4410598,"Alaska State Area, AK","Alaska State Area, AK"
3,RFP/AE: Chevak Hotel Building Renovation,,Chevak,AK,99999,,,Pre-Planning,61.5277778,-165.5863889,,
4,Fairfield Inn & Suites by Marriott,US-431,Albertville,AL,35950,79.0,2021-08-01,Underway,34.277643,-86.2092794,"Alabama North Area, AL","Northeast Alabama - Alabama North Area, AL"
5,Hampton Inn Interior Remodel,6100 AL-157,Cullman,AL,35058,,,Pre-Planning,34.207346,-86.876762,"Alabama North Area, AL","Northwest Alabama - Alabama North Area, AL"
6,Home2 Suites by Hilton Hotel with Swimming Pool,AL-157,Cullman,AL,35057,101.0,,Planning,34.2330775,-86.919719,"Alabama North Area, AL","Northwest Alabama - Alabama North Area, AL"
7,Hotel,12th St,Anniston,AL,36201,17.0,,Planning,33.6597331,-85.8297786,"Alabama North Area, AL","Oxford - Alabama North Area, AL"
8,StayAPT Suites Hotel,259 Hospitality Ln,Dothan,AL,36303,59.0,,Final Planning,31.2701249,-85.4429468,"Alabama South Area, AL","Dothan Area - Alabama South Area, AL"
9,Tru Hotel by Hilton Hotel,3394 Ross Clark Cir,Dothan,AL,36301,84.0,,Planning,31.2412266,-85.4306085,"Alabama South Area, AL","Dothan Area - Alabama South Area, AL"
10,Hampton Inn Interior Remodel,219 Interstate Dr,Greenville,AL,36037,,,Pre-Planning,31.855572,-86.635295,"Alabama South Area, AL","South Alabama - Alabama South Area, AL"
11,Graduate Auburn Hotel,202 W Magnolia Ave,Auburn,AL,36830,177.0,,Planning,32.606949,-85.483362,"Auburn, AL","Auburn, AL"
12,Staybridge Suites Hotel with Swimming Pool,2061 South College Street,Auburn,AL,36830,100.0,2021-05-01,Underway,32.565464,-85.50242,"Auburn, AL","Auburn, AL"
13,AU Hotel & Dixon Conference Ctr Interior Renovation,241 S College St,Auburn,AL,36830,,2021-03-01,Underway,32.6029913,-85.4809402,"Auburn, AL","Auburn, AL"
14,Hampton Inn Interior Remodel,2555 Hilton Garden Dr,Auburn,AL,36830,,,Pre-Planning,32.605401,-85.431077,"Auburn, AL","Auburn, AL"
15,Rane Culinary Science Center Building,College St. and Thach Ave.,Auburn University,AL,36830,32.0,2022-08-01,Underway,32.6041213,-85.4818043,"Auburn, AL","Auburn, AL"
16,Hampton Inn Interior Remodel,3230 Edwards Lake Pkwy,Birmingham,AL,35235,,,Pre-Planning,33.598966,-86.646673,"Birmingham, AL",Birmingham North
17,Residence Inn Mechanical Only Homewood Al,2800 Us Hwy 280,Birmingham,AL,35242,120.0,,Bidding,33.476614,-86.772069,"Birmingham, AL",Birmingham South
18,Hyatt Place Birmingham/Hoover Hotel Interior Renovation,2980 John Hawkins Pkwy,Hoover,AL,35244,,,Planning,33.3708624,-86.8140414,"Birmingham, AL",Birmingham South
19,Home2 Suites by Hilton,3200 Galleria Cir,Hoover,AL,35244,126.0,,Planning,33.3737813,-86.8122895,"Birmingham, AL",Birmingham South
20,Stadium Trace Village Hotel (Parcel I-2),I-459 & Stadium Trace Pkwy,Hoover,AL,35244,145.0,,Planning,33.4170399,-86.755128,"Birmingham, AL",Birmingham South
21,Home2 Suites by Hilton,to be determined,Bessemer,AL,35020,120.0,,Pre-Planning,33.4067,-86.9529,"Birmingham, AL",Birmingham West
22,A G Gaston Motel (Restoration),1510 5th Ave North,Birmingham,AL,35203,,2021-12-01,Underway,33.514903,-86.81499,"Birmingham, AL",Downtown Birmingham
23,Marriott Courtyard PH II (Interior Renovations),1820 5th Ave South,Birmingham,AL,35233,,,Bidding,33.506994,-86.803971,"Birmingham, AL",Downtown Birmingham
24,The Kelly Hotel,2027 1st Ave N,Birmingham,AL,35203,96.0,2021-05-01,Underway,33.515086,-86.804214,"Birmingham, AL",Downtown Birmingham
25,Sheraton Hotel Office Repair,2101 Richard Arrington Jr Blvd,Birmingham,AL,35203,,,Bidding,33.52373,-86.810017,"Birmingham, AL",Downtown Birmingham
26,Redmont Park Mixed Use Development,23rd St S,Birmingham,AL,35205,30.0,,Planning,,,"Birmingham, AL",Downtown Birmingham
27,"Valley Hotel Homewood Birmingham, Curio Collection by Hilton",2727 18th Street South,Homewood,AL,35209,131.0,2021-03-16,Underway,33.481212,-86.791781,"Birmingham, AL",Mountain Brook Area
28,Residence Inn by Marriott Hotel,Grandview Pkwy,Birmingham,AL,35243,124.0,,Planning,33.43582,-86.7193597,"Birmingham, AL",Mountain Brook Area
29,StayAPT Suites Hotel,210 West Park Loop NW,Huntsville,AL,35806,75.0,,Final Planning,34.743902,-86.686157,"Huntsville, AL","Huntsville - Huntsville, AL"
30,Hotel #1,5100 Premier Dr NW,Huntsville,AL,35805,,,Planning,34.73062,-86.661565,"Huntsville, AL","Huntsville - Huntsville, AL"
31,Hotel #2,5100 Premier Dr NW,Huntsville,AL,35805,,,Planning,34.73062,-86.661565,"Huntsville, AL","Huntsville - Huntsville, AL"
32,Aloft Hotel with Swimming Pool,5901 University Dr NW,Huntsville,AL,35806,130.0,,Planning,34.7383089,-86.6682716,"Huntsville, AL","Huntsville - Huntsville, AL"
33,Hotel Indigo,5901 University Dr NW,Huntsville,AL,35806,120.0,,Planning,34.7383089,-86.6682716,"Huntsville, AL","Huntsville - Huntsville, AL"
34,Hyatt House Hotel,Jefferson St,Huntsville,AL,35801,145.0,,Planning,34.732328,-86.584516,"Huntsville, AL","Huntsville - Huntsville, AL"
35,Constellation Mixed Use Development PHASE 2,Memorial Pkwy SW,Huntsville,AL,35801,100.0,,Planning,34.7311548,-86.5884313,"Huntsville, AL","Huntsville - Huntsville, AL"
36,Autograph Collection by Marriott Hotel,Monroe St & Clinton Ave,Huntsville,AL,35801,187.0,,Planning,34.7296111,-86.5860032,"Huntsville, AL","Huntsville - Huntsville, AL"
37,Hilton Garden Inn,145 Graphics Dr,Madison,AL,35758,111.0,2021-04-01,Underway,34.6703376,-86.7509379,"Huntsville, AL","Huntsville South/HSV Airport - Huntsville, AL"
38,Fairfield Inn and Suites with Swimming Pool,8475 Madison Blvd,Madison,AL,35758,85.0,,Planning,34.6827195,-86.7364143,"Huntsville, AL","Huntsville South/HSV Airport - Huntsville, AL"
39,Redstone Gateway Hotel #2,I-565 at Rideout Rd,Huntsville,AL,35808,120.0,,Planning,34.70676,-86.671365,"Huntsville, AL","Huntsville South/HSV Airport - Huntsville, AL"
40,Marriott at Town Madison Hotel,Stadium Way,Madison,AL,35758,212.0,,Planning,34.6340989,-86.7178558,"Huntsville, AL","Huntsville South/HSV Airport - Huntsville, AL"
41,Margaritaville Resort Hotel and Pool at Town Madison,Zierdt Rd at I-565,Madison,AL,35756,220.0,,Planning,34.6765096,-86.7160686,"Huntsville, AL","Huntsville South/HSV Airport - Huntsville, AL"
42,Orange Beach Hotel with Swimming Pool,26026 Perdido Beach Blvd,Orange Beach,AL,36561,192.0,,Planning,30.269927,-87.58109,"Mobile, AL","Gulf Shores - Mobile, AL"
43,Fairhope Boutique Hotel/Retail Building,Fairhope Ave & Section St,Fairhope,AL,36532,13.0,,Planning,30.5230296,-87.9029874,"Mobile, AL","Spanish Fort - Mobile, AL"
44,Murphy House Boutique Hotel (Marriott Autograph Montgomery),22 Bibb St,Montgomery,AL,36104,100.0,2021-11-01,Underway,32.3803089,-86.309605,"Montgomery, AL","Downtown Montgomery - Montgomery, AL"
45,Residence Inn by Marriott Hotel,400 N Perry St,Montgomery,AL,36104,140.0,,Planning,32.382633,-86.307415,"Montgomery, AL","Downtown Montgomery - Montgomery, AL"
46,Home2 Suites by Hilton Hotel,400 N Perry St,Montgomery,AL,36104,133.0,,Planning,32.382633,-86.307415,"Montgomery, AL","Downtown Montgomery - Montgomery, AL"
47,StayAPT Suites Hotel,5000 Woodmere Blvd,Montgomery,AL,36106,78.0,,Planning,32.3579434,-86.2186754,"Montgomery, AL","Downtown Montgomery - Montgomery, AL"
48,Aloft Hotel,Berryhill Rd,Mobile,AL,36117,,,Planning,32.3555298,-86.1656404,"Montgomery, AL","Montgomery East - Montgomery, AL"
49,Aloft Hotel with Swimming Pool,Berryhill Rd & Eastchase Ln,Montgomery,AL,36117,124.0,,Planning,32.3566628,-86.163751,"Montgomery, AL","Montgomery East - Montgomery, AL"
50,Home2 Suites Hotel,Eastchase Pkwy,Montgomery,AL,36117,97.0,,Planning,32.36251,-86.1385294,"Montgomery, AL","Montgomery East - Montgomery, AL"
51,Residence Inn Hotel,Eastchase Pkwy,Montgomery,AL,36117,96.0,,Planning,32.36251,-86.1385294,"Montgomery, AL","Montgomery East - Montgomery, AL"
52,Country Inn & Suites - Pool,7625 Wasden Ct,Montgomery,AL,36105,83.0,,Planning,32.2691899,-86.35468,"Montgomery, AL","Montgomery South - Montgomery, AL"
53,The Druid Hotel,219 Greensboro Ave,Tuscaloosa,AL,35401,,2021-05-01,Planning,33.211988,-87.569944,"Tuscaloosa, AL","Tuscaloosa, AL"
54,Alamite Hotel - Marriott Tribute,23rd Ave,Tuscaloosa,AL,35401,112.0,2022-03-01,Underway,33.208871,-87.566673,"Tuscaloosa, AL","Tuscaloosa, AL"
55,Element Hotel,300 21st Ave,Tuscaloosa,AL,35401,94.0,,Planning,33.2130641,-87.5650178,"Tuscaloosa, AL","Tuscaloosa, AL"
56,Courtyard by Marriott Hotel,700 Bridge Ave,Northport,AL,35476,107.0,2021-10-01,Underway,33.221064,-87.575901,"Tuscaloosa, AL","Tuscaloosa, AL"
57,Stillman College Hotel & Mixed Use Development,Stillman Blvd,Tuscaloosa,AL,35401,125.0,,Planning,33.2009178,-87.5845189,"Tuscaloosa, AL","Tuscaloosa, AL"
58,The Block Mixed Use Development PHASE 2,2nd Ave N between 19th and 20th Sts,Birmingham,AL,99999,,,Planning,33.5346033,-86.7657403,,
59,Dansby Tower Mixed Use Development in The Block PHASE 3,2nd Ave N between 19th and 20th Sts,Birmingham,AL,99999,,,Planning,33.5346033,-86.7657403,,
60,Plaza Hotel Renovation,2 Convention Center Plaza,Pine Bluff,AR,71601,,,Pre-Planning,34.2212687,-91.9977881,"Arkansas State Area, AR","Arkansas South - Arkansas State Area, AR"
61,Hampton Inn by Hilton (Remodel),2900 Phillips Dr,Jonesboro,AR,72401,62.0,,Pre-Planning,35.809367,-90.670268,"Arkansas State Area, AR","Jonesboro/Paragould - Arkansas State Area, AR"
62,Downtown Square Hotel,200 E Central Ave,Bentonville,AR,72712,200.0,,Planning,36.3721162,-94.2077896,"Bentonville, AR","Bentonville, AR"
63,Motto Hotel by Hilton,223 S Main St,Bentonville,AR,72712,175.0,2022-10-01,Planning,36.2615181,-94.2317833,"Bentonville, AR","Bentonville, AR"
64,Home2 Suites Hotel by Hilton,3100 SE E Pointe Avenue,Bentonville,AR,72712,119.0,2021-04-01,Underway,36.3726,-94.2179,"Bentonville, AR","Bentonville, AR"
65,Independence Plaza Hotel (Lot 4),SW Intersection of I-49 & W Monroe Avenu,Lowell,AR,72745,,,Planning,36.2592211,-94.1995383,"Bentonville, AR","Bentonville, AR"
66,Hampton Inn by Hilton (Remodel),1700 S 48th St,Springdale,AR,72762,102.0,,Pre-Planning,36.170965,-94.183733,"Fayetteville, AR","Fayetteville, AR"
67,Hyatt Place Hotel (North Fayetteville),348 E Van Asche Drive,Fayetteville,AR,72703,120.0,2021-06-01,Underway,36.117693,-94.153095,"Fayetteville, AR","Fayetteville, AR"
68,Residence Inn / Springhill Suites Hotel,Intersection of Pam Angus Dr & McMillan ,Fayetteville,AR,72701,200.0,,Planning,36.0757284,-94.1993583,"Fayetteville, AR","Fayetteville, AR"
69,Markham Hill Hotel/Cabins,Markham Hill & Cross Ave,Fayetteville,AR,72701,80.0,,Planning,36.0602796,-94.1902729,"Fayetteville, AR","Fayetteville, AR"
70,Oaklawn Racing Casino Expansion & Hotel & Events Center,2705 Central Avenue,Hot Springs,AR,71901,203.0,2021-05-01,Underway,34.482795,-93.059707,"Hot Springs, AR","Hot Springs, AR"
71,Southland Casino Racing,1550 North Ingram Blvd ,West Memphis,AR,72301,300.0,2021-06-01,Underway,35.162588,-90.158197,"Memphis, TN",West Memphis
72,Avid West Memphis,Intersection of I-40 & 7th St,West Memphis,AR,72301,95.0,2022-03-16,Final Planning,,,"Memphis, TN",West Memphis
73,Shonto Hotel and Retail Center,S. R. 98 and U.S. 160,Shonto,AZ,86054,125.0,,Planning,36.461121,-110.692112,"Arizona State Area, AZ","Arizona East - Arizona State Area, AZ"
74,Antelope Point Hotel & Horseshoe Bend Eatery,Taylor Road,Saint Michaels,AZ,86511,70.0,,Pre-Planning,35.657475,-109.096379,"Arizona State Area, AZ","Arizona East - Arizona State Area, AZ"
75,Hotel Building,466 US-89,Cameron,AZ,86020,,,Underway,35.8753733,-111.4132561,"Arizona State Area, AZ","Arizona West - Arizona State Area, AZ"
76,Monte Vista Hotel/Restaurant Remodeling/Expansion,100 N San Francisco St,Flagstaff,AZ,86001,73.0,,Planning,35.198161,-111.647464,"Flagstaff/Prescott, AZ","Flagstaff - Flagstaff/Prescott, AZ"
77,Holiday Inn,2511 E Rt 66,Flagstaff,AZ,86004,103.0,,Planning,35.2062014,-111.612563,"Flagstaff/Prescott, AZ","Flagstaff - Flagstaff/Prescott, AZ"
78,Days Inn Redevelopment,2735 S Woodlands Village Blvd,Flagstaff,AZ,86001,,,Planning,35.175389,-111.667115,"Flagstaff/Prescott, AZ","Flagstaff - Flagstaff/Prescott, AZ"
79,Budget Host Inn Expansion,820 W Route 66,Flagstaff,AZ,86001,85.0,,Planning,35.192743,-111.661377,"Flagstaff/Prescott, AZ","Flagstaff - Flagstaff/Prescott, AZ"
80,MSWHampton Inn by Hilton (Remodel),1800 AZ-89A,Sedona,AZ,86336,55.0,,Pre-Planning,34.863734,-111.791384,"Flagstaff/Prescott, AZ","Prescott - Flagstaff/Prescott, AZ"
81,Best Western Plus Casa Grande,1918 E Florence Blvd,Casa Grande,AZ,85122,68.0,2021-05-01,Underway,32.8802243,-111.7059909,"Phoenix, AZ",Casa Grande
82,Hampton Inn (Casa Grande AZ),2182 E Florence Blvd,Casa Grande,AZ,85122,92.0,,Planning,32.8802908,-111.6931116,"Phoenix, AZ",Casa Grande
83,Holiday Inn (Casa Grande AZ),238 N Camino Mercado,Casa Grande,AZ,85122,116.0,,Planning,32.8744033,-111.690895,"Phoenix, AZ",Casa Grande
84,Four Corners Hotel (Restaurant - Office - Retail),1001 E Pierce St,Phoenix,AZ,85006,50.0,,Planning,33.455519,-112.0602924,"Phoenix, AZ",Downtown/Scottsdale South
85,Hotel on McDowell,1144 E McDowell Rd,Phoenix,AZ,85006,90.0,,Planning,33.4659842,-112.0566179,"Phoenix, AZ",Downtown/Scottsdale South
86,Historic Luhrs Bldg Convert to Marriott Moxy Brand Hotel,116 S Central Ave ,Phoenix,AZ,85003,164.0,,Planning,33.4467315,-112.0739552,"Phoenix, AZ",Downtown/Scottsdale South
87,Home2Suites Downtown Phoenix,117 E Jackson St,Central City,AZ,85004,148.0,,Planning,33.4447424,-112.0719027,"Phoenix, AZ",Downtown/Scottsdale South
88,Hyatt Place Phoenix Downtown,122 W Adams St ,Phoenix,AZ,85003,238.0,2021-08-01,Underway,33.4494699,-112.076027,"Phoenix, AZ",Downtown/Scottsdale South
89,Hilton Garden Inn (Remodel),2435 S 47th St,Phoenix,AZ,85034,93.0,,Pre-Planning,33.425107,-111.981274,"Phoenix, AZ",Downtown/Scottsdale South
90,Hotel/Office/Retail Complex,30 N 1st St ,Phoenix,AZ,85004,205.0,,Planning,33.448569,-112.072634,"Phoenix, AZ",Downtown/Scottsdale South
91,RFQ/AE: Parking & Commercial Development Concessions,3400 E Sky Harbor Blvd ,Phoenix,AZ,85034,,,Pre-Planning,33.435066,-112.007273,"Phoenix, AZ",Downtown/Scottsdale South
92,AC Hotels By Marriott Phoenix Downtown,414 N 5th St ,Phoenix,AZ,85004,199.0,2021-02-04,Underway,33.452483,-112.067549,"Phoenix, AZ",Downtown/Scottsdale South
93,Avid Phoenix,4334 E Washington St ,Phoenix,AZ,85034,95.0,2021-06-16,Planning,33.4484188,-111.9879858,"Phoenix, AZ",Downtown/Scottsdale South
94,44 Camelback Boutique Hotel,44th & N Camelback,Phoenix,AZ,85012,80.0,,Planning,33.5077702,-111.9870359,"Phoenix, AZ",Downtown/Scottsdale South
95,500 Palm Boutique Hotel,500 W Palm Lane,Phoenix,AZ,85004,90.0,,Planning,33.469438,-112.0803046,"Phoenix, AZ",Downtown/Scottsdale South
96,Hotel,965 E Van Buren ,Phoenix,AZ,85006,,,Pre-Planning,33.451298,-112.059665,"Phoenix, AZ",Downtown/Scottsdale South
97,The Edith Hotel / Office Tower Mixed Use,Adams St & Central Ave,Phoenix,AZ,85003,218.0,,Planning,33.4496128,-112.0760282,"Phoenix, AZ",Downtown/Scottsdale South
98,Home2Suites / Tru Hotel @ Park Central,Central Ave & Monterey SEC,Phoenix,AZ,85012,207.0,,Planning,33.4846287,-112.0764485,"Phoenix, AZ",Downtown/Scottsdale South
99,Atari Hotel (Phoenix AZ),site to be selected,Phoenix,AZ,85004,630.0,,Pre-Planning,33.4528292,-112.0685027,"Phoenix, AZ",Downtown/Scottsdale South
100,The McDowell Hotel,,Phoenix,AZ,85006,105.0,,Planning,33.4636012,-112.0535987,"Phoenix, AZ",Downtown/Scottsdale South
101,Homewood Suites by Hilton (Remodel),1221 S Spectrum Blvd,Chandler,AZ,85286,83.0,,Pre-Planning,33.287225,-111.889029,"Phoenix, AZ",Gilbert/Chandler
102,Hampton Inn by Hilton (Remodel),1231 S Spectrum Blvd,Chandler,AZ,85286,101.0,,Pre-Planning,33.287427,-111.887483,"Phoenix, AZ",Gilbert/Chandler
103,Residence Inn (Tempe AZ),1724 W Greentree Dr,Tempe,AZ,85284,111.0,,Planning,33.3320882,-111.9681586,"Phoenix, AZ",Gilbert/Chandler
104,Uptown Suites (Chandler AZ),2040 W PECOS RD ,Chandler,AZ,85224,160.0,,Planning,33.2914676,-111.8767389,"Phoenix, AZ",Gilbert/Chandler
105,Gila River Wild Horse Pass Hotel Expansion/Renov,5040 Wild Horse Pass Blvd,Chandler,AZ,85226,205.0,2021-10-01,Underway,33.2817188,-111.9737261,"Phoenix, AZ",Gilbert/Chandler
106,Strand @ Gilbert Hotel,5050 S Higley Rd ,Gilbert,AZ,85297,140.0,,Pre-Planning,33.3418659,-111.7214115,"Phoenix, AZ",Gilbert/Chandler
107,Holiday Inn Express & Suites Gilbert,5398 S Power Rd,Gilbert,AZ,85295,98.0,2021-05-01,Final Planning,,,"Phoenix, AZ",Gilbert/Chandler
108,La Quinta Hotel,SEC St Rt 347 & Bowlin Rd,Maricopa,AZ,85138,89.0,2021-03-01,Underway,33.0438113,-112.0480132,"Phoenix, AZ",Gilbert/Chandler
109,My Place Hotel Buckeye Arizona,1019 S Watson Rd ,Buckeye,AZ,85326,63.0,2021-05-01,Underway,33.4376649,-112.5562268,"Phoenix, AZ",I10 West
110,Holiday Inn Express Hotel (McDowell North),1750 N 95th Lane,Phoenix,AZ,85037,50.0,2021-03-01,Underway,33.466891,-112.266223,"Phoenix, AZ",I10 West
111,Four Points by Sheraton (Avondale AZ),99th Ave & McDowell Rd NWC,Avondale,AZ,85323,130.0,,Planning,33.465129,-112.275992,"Phoenix, AZ",I10 West
112,Best Western Hotel (Avondale AZ),N Eliseo Felix Jr Way,Avondale,AZ,85323,100.0,,Planning,33.4475849,-112.3367717,"Phoenix, AZ",I10 West
113,Hotel Development Phase 2,N Eliseo Felix Jr Way,Avondale,AZ,85323,100.0,,Pre-Planning,33.4475849,-112.3367717,"Phoenix, AZ",I10 West
114,Home2 Suites by Hilton Phoenix Avondale,SEC of 103rd Ave & McDowell Rd,Avondale,AZ,85392,127.0,2021-03-04,Underway,,,"Phoenix, AZ",I10 West
115,Hampton Inn Metrocenter,10100 N Metro Parkway East,Phoenix,AZ,85051,101.0,2021-03-01,Underway,33.5789331,-112.1191118,"Phoenix, AZ",I17 North
116,Staybridge Inn & Suites Deer Valley,2001 W Pinnacle Peak Rd,Phoenix,AZ,85027,102.0,,Planning,33.779356,-112.108989,"Phoenix, AZ",I17 North
117,Home2Suites Hotel Happy Valley,2107 W Whispering Wind Dr,Phoenix,AZ,85085,124.0,,Planning,33.71023,-112.104868,"Phoenix, AZ",I17 North
118,Woodspring Suites Hotel,24275 N 23rd Ave,Phoenix,AZ,85085,114.0,,Planning,33.7060491,-112.1087799,"Phoenix, AZ",I17 North
119,Legacy Sports Arena & Hotel,32000 N 28th Ave 2727 & 2775 W Bronco Butte,Phoenix,AZ,85085,97.0,2021-07-01,Underway,33.7533,-112.104,"Phoenix, AZ",I17 North
120,City North Dual Brand Hotel & Retail/Restaurant Shell,N 55th St ,Phoenix,AZ,85024,238.0,,Planning,33.6779266,-111.9640228,"Phoenix, AZ",I17 North
121,WaterWalk Hotel Apartments (Phoenix AZ),W Pinnacle Peak Rd & N 19th Ave,Phoenix,AZ,85027,,,Pre-Planning,33.6983107,-112.0999458,"Phoenix, AZ",I17 North
122,Hampton Inn by Hilton (Remodel),8408 W Paradise Ln,Peoria,AZ,85382,,,Pre-Planning,33.635735,-112.236022,"Phoenix, AZ",Peoria/Phoenix Northwest
123,West Valley Resort Hotel,91st Ave & Northern Ave ,Glendale,AZ,85301,600.0,,Planning,33.5516693,-112.2549328,"Phoenix, AZ",Peoria/Phoenix Northwest
124,Marriott Springhill Suites at Surprise Center,ELM AND W OF CITY CENTER DR,Surprise,AZ,85374,110.0,,Planning,33.6372012,-112.3972003,"Phoenix, AZ",Peoria/Phoenix Northwest
125,Hilton Garden Inn,N Stadium Way & Young St SEC ,Surprise,AZ,85335,28.0,,Planning,33.5999,-112.326,"Phoenix, AZ",Peoria/Phoenix Northwest
126,Desert Diamond West Valley Resort & Casino,Northern Ave & 91st Ave,Glendale,AZ,85305,400.0,2022-01-31,Planning,,,"Phoenix, AZ",Peoria/Phoenix Northwest
127,Marriott Townplace Suites/Fairfield Inn & Suites (Peoria AZ),Paradise Ln & 75th Ave ,Peoria,AZ,85308,198.0,,Planning,33.6341762,-112.2200523,"Phoenix, AZ",Peoria/Phoenix Northwest
128,North Pointe Hotel,18211 N PIMA RD ,Scottsdale,AZ,85255,126.0,,Planning,33.650741,-111.8863077,"Phoenix, AZ",Scottsdale
129,Comfort Suites Hotel (Scottsdale AZ),3275 N Drinkwater Blvd,Scottsdale,AZ,85251,23.0,,Planning,33.4851908,-111.9241632,"Phoenix, AZ",Scottsdale
130,Doubletree Resort by Hilton ParadiseValleyScotts Renovations,5401 N Scottsdale Rd,Scottsdale,AZ,85250,378.0,,Planning,33.5159515,-111.9248758,"Phoenix, AZ",Scottsdale
131,Hilton Scottsdale Resort & Villas Renovations,6333 N Scottsdale Rd,Scottsdale,AZ,85250,235.0,,Planning,33.530694,-111.9242098,"Phoenix, AZ",Scottsdale
132,Ritz-Carlton Paradise Valley Scottsdale,7000 E Lincoln Dr ,Paradise Valley,AZ,85253,291.0,2021-03-15,Underway,33.531486,-111.929646,"Phoenix, AZ",Scottsdale
133,Caesar's Republic Scottsdale Luxury Hotel,7014 E Camelback Rd ,Scottsdale,AZ,85251,266.0,2022-01-01,Underway,33.5028371,-111.9294198,"Phoenix, AZ",Scottsdale
134,SmokeTree Resort Redevelopment (Addition),7101 E Lincoln Dr ,Paradise Valley,AZ,85253,180.0,,Planning,33.5312808,-111.9286957,"Phoenix, AZ",Scottsdale
135,Maya Hotel,7301 E Indian Plaza,Scottsdale,AZ,85251,164.0,,Planning,33.50137,-111.92335,"Phoenix, AZ",Scottsdale
136,"Hotel Scottsdale Old Town, Curio Collection by Hilton",7501 E Camelback Rd ,Scottsdale,AZ,85251,169.0,2021-11-01,Underway,33.5018759,-111.9199712,"Phoenix, AZ",Scottsdale
137,Comfort Suites Hotel,9175 E Indian Bend Rd,Scottsdale,AZ,85250,120.0,2021-08-01,Underway,33.538329,-111.884453,"Phoenix, AZ",Scottsdale
138,Cambria hotel & suites Scottsdale,9301 E Via de Ventura,Scottsdale,AZ,85258,100.0,2021-12-15,Final Planning,,,"Phoenix, AZ",Scottsdale
139,Hilton Scottsdale North @ Cavasson,Hayden Rd & Legacy Blvd,Scottsdale,AZ,85266,237.0,,Underway,33.6621089,-111.9060896,"Phoenix, AZ",Scottsdale
140,Hampton Inn by Hilton Carefree,SEQ of Sundial Cir & Easy St,Carefree,AZ,85377,97.0,2021-10-01,Underway,33.823958,-111.921222,"Phoenix, AZ",Scottsdale
141,Marriott Fairfield Inn and Suites (Fountain Hills AZ),Shea and Saguaro Blvd,Fountain Hills,AZ,85268,66.0,,Planning,,,"Phoenix, AZ",Scottsdale
142,Fairfield by Marriott (Fountain Hills AZ),Shea and Saguaro Blvd NEC,Fountain Hills,AZ,85268,66.0,,Planning,33.5731418,-111.7142883,"Phoenix, AZ",Scottsdale
143,Westin Tempe,11 E 7th St ,Tempe,AZ,85281,290.0,2021-12-01,Underway,33.423123,-111.939328,"Phoenix, AZ",Tempe/Mesa
144,One Hundred Mill Hotel,120 S Mill Ave,Tempe,AZ,85281,237.0,,Planning,33.4284936,-111.9401974,"Phoenix, AZ",Tempe/Mesa
145,Hampton Inn & Suites (Mesa AZ),1456 S Crismon Rd ,Mesa,AZ,85209,130.0,,Bidding,33.3890938,-111.6165829,"Phoenix, AZ",Tempe/Mesa
146,Woodspring Suites (Mesa AZ),1911 S Mesa Dr,Mesa,AZ,85210,122.0,,Planning,33.3801796,-111.82368,"Phoenix, AZ",Tempe/Mesa
147,Rio Salado Mix Use Development Phase 7,2100 Rio Salado ,Tempe,AZ,85281,243.0,,Planning,33.429486,-111.895981,"Phoenix, AZ",Tempe/Mesa
148,Tempe Depot Redevelopment,300 S Ash Ave,Tempe,AZ,85281,280.0,,Planning,33.427732,-111.943236,"Phoenix, AZ",Tempe/Mesa
149,Home2 Suites by Hilton Mesa Longbow,5643 E Longbow Pkwy,Mesa,AZ,85215,111.0,2021-03-01,Underway,33.473024,-111.706152,"Phoenix, AZ",Tempe/Mesa
150,College Ave Hotel,580 S College Ave,Tempe,AZ,85281,180.0,,Planning,33.4246633,-111.9352261,"Phoenix, AZ",Tempe/Mesa
151,Hyatt House Tempe Downtown,601 E 6th St,Tempe,AZ,85281,106.0,2022-01-01,Underway,,,"Phoenix, AZ",Tempe/Mesa
152,"Best Western Hotel Alterations (Tempe, AZ)",670 N Scottsdale Rd,Tempe,AZ,85281,,,Pre-Planning,33.435212,-111.926405,"Phoenix, AZ",Tempe/Mesa
153,Staybridge Suites,93 S Rockford Dr,Tempe,AZ,85281,109.0,,Planning,33.429476,-111.896968,"Phoenix, AZ",Tempe/Mesa
154,Vib Hotel (Tempe AZ),Farmer Avenue and 5th Street SEC ,Tempe,AZ,85281,102.0,2021-09-01,Underway,33.4266906,-111.9446294,"Phoenix, AZ",Tempe/Mesa
155,Mesa (Hotel/Condominium/Retail Complex),SWC of Main and Center ,Mesa,AZ,85201,150.0,,Pre-Planning,33.4139504,-111.8304022,"Phoenix, AZ",Tempe/Mesa
156,One South Church Adaptive Reuse,1 South Church,Tucson,AZ,85701,145.0,,Planning,32.221736,-110.972076,"Tucson, AZ",Downtown Tucson
157, Home2 Suites,141 South Stone Avenue ,Tucson,AZ,85701,76.0,2021-08-01,Underway,32.219739,-110.970809,"Tucson, AZ",Downtown Tucson
158,Hampton Inn / Home2 Suites,141 South Stone Avenue ,Tucson,AZ,85701,123.0,2021-08-01,Underway,32.219739,-110.970809,"Tucson, AZ",Downtown Tucson
159,"WoodSpring Suites Hotel (Tucson, AZ)",1495 E Tucson Marketplace Blvd,Tucson,AZ,85713,122.0,2021-12-01,Bidding,32.1837519,-110.9527382,"Tucson, AZ",Downtown Tucson
160,The Hotel Arizona (addition/alterations),181 W Broadway ,Tucson,AZ,85701,307.0,,Pre-Planning,,,"Tucson, AZ",Downtown Tucson
161,Double Tree by Hilton Hotel @ TCC,260 S Church Ave ,Tucson,AZ,85701,175.0,2021-04-01,Underway,32.218191,-110.972351,"Tucson, AZ",Downtown Tucson
162,Residence Inn Tucson East,714 N EUCLID AVE,Tucson,AZ,85719,139.0,2021-10-07,Final Planning,32.2309025,-110.9593269,"Tucson, AZ",Downtown Tucson
163,Holiday Inn Express (TI),SWC N Cracker Barrel Road and W Hospital,Marana,AZ,85743,,,Planning,32.3404,-111.1447,"Tucson, AZ",Downtown Tucson
164,Home 2 Suites by Hilton,6555 South Bay Colony Drive ,Tucson,AZ,85756,123.0,2021-06-01,Underway,32.132993,-110.930195,"Tucson, AZ",Tucson Airport
165,Home2Suites By Hilton,W Cortaro Farms Rd,Marana,AZ,85742,111.0,,Planning,32.359024,-111.0611916,"Tucson, AZ",Tucson North/Ora Valley
166,Hilton Garden Inn (Oak Creek AZ),Jack?s Canyon Road and State Route 179,,AZ,86341,154.0,,Planning,34.7957869,-111.712364,,
167,The BLVD Park Avenue District Mixed-Use Development,,Avondale,AZ,99999,,,Pre-Planning,33.4355977,-112.3496021,,
168,Bayside Family Resort Hotel,1131 Back Bay Drive ,Newport Beach,CA,92660,275.0,,Planning,33.6151987,-117.8915037,"Anaheim, CA",Costa Mesa/Irvine
169,Tennis Club Redevelopment,1602 E. Coast Hwy ,Newport Beach,CA,92660,27.0,,Planning,33.6110436,-117.8799732,"Anaheim, CA",Costa Mesa/Irvine
170,Sonesta Irvine Hotel,17941 Von Karman Ave,Irvine,CA,92614,,,Planning,33.6815008,-117.8508322,"Anaheim, CA",Costa Mesa/Irvine
171,"The Landmark Mixed-use-Hotel, Retail, Office","18872,18912,18952 Macarthur Blvd",Irvine,CA,92612,386.0,,Planning,33.6743249,-117.8617994,"Anaheim, CA",Costa Mesa/Irvine
172,Townplace Suites By Marriott ,2652 White Rd,Irvine,CA,92614,165.0,2023-01-01,Planning,33.6791873,-117.8431399,"Anaheim, CA",Costa Mesa/Irvine
173,Camp Out Boutique Hotel,2944 and 2948 Randall Ave,Costa Mesa,CA,92626,8.0,,Planning,33.6803,-117.9066,"Anaheim, CA",Costa Mesa/Irvine
174,Avenue of the Arts Hotel Expansion,3350 AVENUE OF THE ARTS ,Costa Mesa,CA,92626,150.0,,Planning,33.691494,-117.8804646,"Anaheim, CA",Costa Mesa/Irvine
175,Fairfield Inn & Suites Anaheim Los Alamitos,10650 Los Alamitos Blvd,Los Alamitos,CA,90720,108.0,2021-02-01,Underway,,,"Anaheim, CA",Cypress/Buena Park
176,Hilton Buena Park/Orange County,6986 Beach Blvd,Buena Park,CA,90621,175.0,2021-06-01,Underway,,,"Anaheim, CA",Cypress/Buena Park
177,Aloft Hotel,7851 Beach Blvd,Buena Park,CA,90620,149.0,2022-11-01,Underway,33.848656,-117.998093,"Anaheim, CA",Cypress/Buena Park
178,Westin Anaheim Resort,1030 W Katella Avenue ,Anaheim,CA,92802,618.0,2021-03-01,Underway,33.803169,-117.922706,"Anaheim, CA",Disneyland Area
179,Le Meridian Anaheim Garden Grove,12262 Harbor Blvd,Garden Grove,CA,92840,402.0,2024-07-01,Planning,,,"Anaheim, CA",Disneyland Area
180,Home2 Suites by Hilton Anaheim Resort,1441 S Manchester Avenue ,Anaheim,CA,92802,100.0,2021-05-01,Underway,33.811886,-117.912338,"Anaheim, CA",Disneyland Area
181,Hilton Garden Inn Anaheim Resort,1441 S Manchester Avenue ,Anaheim,CA,92802,123.0,2021-05-01,Underway,33.811886,-117.912338,"Anaheim, CA",Disneyland Area
182,Park Vue Inn Motel,1570 S Harbor Blvd,Anaheim,CA,92802,94.0,,Planning,,,"Anaheim, CA",Disneyland Area
183,element Anaheim Resort Convention Center,1600 S Clementine St,Anaheim,CA,92802,174.0,2021-03-01,Underway,,,"Anaheim, CA",Disneyland Area
184,Hotel 55,1730 S Clementine St,Anaheim,CA,92802,125.0,,Planning,33.8050405,-117.9096587,"Anaheim, CA",Disneyland Area
185,Commercial Building,2045 S Harbor Blvd,Anaheim,CA,92802,,,Underway,33.7975462,-117.916616,"Anaheim, CA",Disneyland Area
186,Grove District Hotel Resort Development,"Choisser Rd,Harbor Blvd, Twintree Lane",GARDEN GROVE,CA,92840,769.0,,Planning,33.7839765,-117.9147665,"Anaheim, CA",Disneyland Area
187,Springhill Suites by Marriott,380 S Placentia Ave ,Placentia,CA,92870,116.0,2021-03-01,Underway,33.868095,-117.88059,"Anaheim, CA",Fullerton/Anaheim North
188,La Quinta Inn and Suites,701-751 East Imperial Hwy ,La Habra,CA,90631,91.0,2024-01-01,Planning,33.9181494,-117.938196,"Anaheim, CA",Fullerton/Anaheim North
189,Residence Inn Anaheim Brea,E Birch st & S State College Blvd,Brea,CA,92821,147.0,2022-07-01,Final Planning,,,"Anaheim, CA",Fullerton/Anaheim North
190,Coast Inn Renovation,1401 S COAST HWY,Laguna Beach,CA,92651,24.0,,Planning,33.5315726,-117.7749439,"Anaheim, CA",San Clemente/Laguna Beach
191,La Vista Inn Addition,2435 South Camino Real ,San Clemente,CA,92672,5.0,,Planning,33.411088,-117.600564,"Anaheim, CA",San Clemente/Laguna Beach
192,Hotel 1,24800 Dana Point Harbor Dr,Dana Point,CA,92629,130.0,,Pre-Planning,33.46172,-117.6967765,"Anaheim, CA",San Clemente/Laguna Beach
193,Hotel 2,24800 Dana Point Harbor Dr,Dana Point,CA,92629,139.0,,Pre-Planning,33.46172,-117.6967765,"Anaheim, CA",San Clemente/Laguna Beach
194,The Museum Hotel,"302,331,345,353,369,385,397 North Coast ",Laguna Beach,CA,92651,118.0,,Planning,33.5440226,-117.7905862,"Anaheim, CA",San Clemente/Laguna Beach
195,Museum Hotel,305-397 N Coast Hwy,Laguna Beach,CA,92651,118.0,,Planning,,,"Anaheim, CA",San Clemente/Laguna Beach
196,Hotel Capistrano by Kimpton,31872-31778 Camino Capistrano ,San Juan Capistrano,CA,92675,102.0,,Planning,33.4993516,-117.6610395,"Anaheim, CA",San Clemente/Laguna Beach
197,The Wave Resort at the Strand,34075 Pacific Coast Hwy ,Dana Point,CA,92629,97.0,,Planning,33.4652191,-117.7083649,"Anaheim, CA",San Clemente/Laguna Beach
198,Lantern Point Hotel,34482 Green Lantern ,Dana Point,CA,92629,51.0,,Planning,33.4619993,-117.7084952,"Anaheim, CA",San Clemente/Laguna Beach
199,Cleo Hotel Development,688-690 South Coast Highway ,Laguna Beach,CA,92651,103.0,,Planning,33.5382658,-117.7797178,"Anaheim, CA",San Clemente/Laguna Beach
200,Autograph Collection San Clemente,Avenida Vista Hermosa & I-5 Freeway,San Clemente,CA,92672,130.0,,Planning,,,"Anaheim, CA",San Clemente/Laguna Beach
201,Hotel Laguna Restoration,corner of South Coast Highway and Laguna,Laguna Beach,CA,92651,,,Pre-Planning,33.5414742,-117.7828386,"Anaheim, CA",San Clemente/Laguna Beach
202,The Villas @ the Headlands Hotel,TBA ,Dana Point,CA,92629,31.0,,Pre-Planning,33.4605793,-117.7043642,"Anaheim, CA",San Clemente/Laguna Beach
203,City Plaza Hotel,1 City Blvd West ,Orange,CA,92868,165.0,,Planning,33.7808631,-117.8930885,"Anaheim, CA",Santa Ana/Orange
204,Home2 Suites by Hilton Garden Grove Anaheim,13650 Harbor Blvd,Garden Grove,CA,92843,124.0,2022-05-01,Underway,33.765248,-117.920152,"Anaheim, CA",Santa Ana/Orange
205,Orange Plaza Inn,137 E. Maple Avenue and 230 N. Orange St,Orange,CA,92866,12.0,,Planning,33.7899374,-117.8523432,"Anaheim, CA",Santa Ana/Orange
206,"Hotel Santa Ana, Tapestry Collection by Hilton",1580 E Warner Ave,Santa Ana,CA,92705,138.0,2023-01-01,Final Planning,,,"Anaheim, CA",Santa Ana/Orange
207,Third St & Broadway Mixed Use Redevelopment,201 W 3RD ST ,Santa Ana,CA,92701,250.0,,Planning,33.7473348,-117.8687798,"Anaheim, CA",Santa Ana/Orange
208,Sky Palm Motel,210 N Tustin St,Orange,CA,92867,28.0,,Planning,33.7895932,-117.8362027,"Anaheim, CA",Santa Ana/Orange
209,Hampton Inn By Hilton Hotel,"2115,2123, 2129 North Main St ",Santa Ana,CA,92706,135.0,,Planning,33.7650714,-117.8670507,"Anaheim, CA",Santa Ana/Orange
210,Marriott Residence Inn and Courtyard Hotel,3000 W Chapman Ave ,Orange,CA,92868,306.0,,Planning,33.7870801,-117.8841162,"Anaheim, CA",Santa Ana/Orange
211,Sunset Beach Hotel with Commercial,17145 PACIFIC COAST HWY ,Huntington Beach,CA,92649,12.0,,Planning,33.7130033,-118.0650215,"Anaheim, CA",Westminster/Huntington Beach
212,Hughes Lane Hotel Phase 3,2603 Hosking Ave,Bakersfield,CA,93313,110.0,,Planning,35.2804084,-119.0307068,"Bakersfield, CA","Bakersfield, CA"
213,Four Points Sheraton Hotel - Bakersfield CA,5105 California Ave,Bakersfield,CA,93309,,,Planning,35.360895,-119.060015,"Bakersfield, CA","Bakersfield, CA"
214,Hard Rock Casino Resort/Hotel/Restaurants/Pool,S Sabodan St & Maricopa Hwy,Mettler,CA,93313,400.0,,Planning,35.0593339,-118.9758619,"Bakersfield, CA","Bakersfield, CA"
215,Aloft Hotel,Site to be announced,Bakersfield,CA,93304,100.0,,Pre-Planning,35.361672,-119.008881,"Bakersfield, CA","Bakersfield, CA"
216,Tru by Hilton Hotel,Site to be announced,Bakersfield,CA,93304,100.0,,Pre-Planning,35.361672,-119.008881,"Bakersfield, CA","Bakersfield, CA"
217,Holiday Inn Express,13500 Mariposa Rd,Victorville,CA,92395,86.0,,Planning,34.496115,-117.328194,"Barstow, CA","Barstow, CA"
218,Green Tree Inn Remodel and Sundowner's Restaurant Addition,14173 GREEN TREE BOULEVARD,Victorville,CA,92395,,,Planning,34.50824,-117.31844,"Barstow, CA","Barstow, CA"
219,Best Western Plus Executive Residency Hotel,14590 US Hwy 395,Adelanto,CA,92301,90.0,,Planning,34.5151303,-117.4002156,"Barstow, CA","Barstow, CA"
220,Mariott - Fairfield Inn & Townplace Suites,2551 Mercantile Way,Barstow,CA,92311,181.0,,Bidding,34.8486212,-117.0816807,"Barstow, CA","Barstow, CA"
221,Avid Hotel,Bear Valley Rd & Mariposa Rd,Victorville,CA,92345,87.0,,Planning,34.4704419,-117.3428718,"Barstow, CA","Barstow, CA"
222,Fairfield Inn Victorville,Cottonwood Ave and Monarch Blvd,Victorville,CA,92395,110.0,,Pre-Planning,34.4732347,-117.3387385,"Barstow, CA","Barstow, CA"
223,Mixed-Use Phase 2 Restaurant and Hotel,east side of Mariposa Road,Hesperia,CA,92345,100.0,,Pre-Planning,34.4245616,-117.3779301,"Barstow, CA","Barstow, CA"
224,Hotel and Medical Office Buildings,NWC Jess Ranch Parkway,Apple Valley,CA,92308,104.0,,Planning,34.4657766,-117.247667,"Barstow, CA","Barstow, CA"
225,Holiday Inn Express Hotel Addition (Ventura CA),1080 Navigator Drive,Ventura,CA,93001,40.0,,Planning,34.246168,-119.257457,"California Central Coast Area, CA","Oxnard - California Central Coast Area, CA"
226,Santa Paula Family Hotel,1175 Harvard Blvd,Santa Paula,CA,93060,25.0,,Planning,34.3519222,-119.0547811,"California Central Coast Area, CA","Oxnard - California Central Coast Area, CA"
227,Tru by Hilton Hotel - Oxnard,180 W Esplanade Dr,Oxnard,CA,93036,88.0,2021-07-01,Underway,34.2299976,-119.1746493,"California Central Coast Area, CA","Oxnard - California Central Coast Area, CA"
228,Hotel,201 S Montgomery St,Ojai,CA,93023,30.0,,Planning,34.446708,-119.243914,"California Central Coast Area, CA","Oxnard - California Central Coast Area, CA"
229,Fairfield Inn & Suites Hotel,2585 E COCHRAN ST,Simi Valley,CA,93065,103.0,,Planning,34.2795827,-118.7461284,"California Central Coast Area, CA","Oxnard - California Central Coast Area, CA"
230,Hilton Garden Inn Hotel,Figueroa St & E Harbor Blvd,Ventura,CA,93001,160.0,,Planning,34.2768902,-119.2977127,"California Central Coast Area, CA","Oxnard - California Central Coast Area, CA"
231,Mian Plaza/Camarillo Hotel and Conference Center,Las Posas Road & Ventura Blvd,Camarillo,CA,93010,275.0,2021-12-01,Underway,34.215829,-119.069688,"California Central Coast Area, CA","Oxnard - California Central Coast Area, CA"
232,Delaterre Wellness Resort,Surfside Dr & Market St,Port Hueneme,CA,93041,130.0,,Pre-Planning,34.1449625,-119.2004167,"California Central Coast Area, CA","Oxnard - California Central Coast Area, CA"
233,Hotel Cheval II Expansion,1020 Pine Street,Paso Robles,CA,93446,20.0,,Planning,35.6249615,-120.6882418,"California Central Coast Area, CA","San Luis Obispo - California Central Coast Area, CA"
234,The Hotel at the Creamery,1027 Nipomo Street,San Luis Obispo,CA,93401,65.0,,Planning,35.278725,-120.666297,"California Central Coast Area, CA","San Luis Obispo - California Central Coast Area, CA"
235,San Luis Ranch Hotel-Springhill Suites/Residence Inn,1035 MADONNA RD,San Luis Obispo,CA,93405,200.0,,Planning,35.256519,-120.679605,"California Central Coast Area, CA","San Luis Obispo - California Central Coast Area, CA"
236,Montorosa Mixed-Use Development,1185 MONTEREY ST,San Luis Obispo,CA,93401,44.0,,Planning,35.283249,-120.658826,"California Central Coast Area, CA","San Luis Obispo - California Central Coast Area, CA"
237,Mixed-Use Hotel and Residential Phase 1,1598 El Camino Real,Grover Beach,CA,93433,85.0,,Planning,35.128216,-120.609385,"California Central Coast Area, CA","San Luis Obispo - California Central Coast Area, CA"
238,Mixed-Use Phase 2 Hotel A,1598 El Camino Real,Grover Beach,CA,93433,91.0,,Planning,35.128216,-120.609385,"California Central Coast Area, CA","San Luis Obispo - California Central Coast Area, CA"
239,Marriott Residence Inn,1717 S Vine,Paso Robles,CA,93446,128.0,,Planning,35.5915698,-120.69587,"California Central Coast Area, CA","San Luis Obispo - California Central Coast Area, CA"
240,Motel Inn,2125 Monterey,San Luis Obispo,CA,93401,55.0,,Planning,35.2906959,-120.6485749,"California Central Coast Area, CA","San Luis Obispo - California Central Coast Area, CA"
241,Black Oak Lodge,2717 Black Oak Drive,Paso Robles,CA,93446,96.0,,Planning,35.6426725,-120.6861771,"California Central Coast Area, CA","San Luis Obispo - California Central Coast Area, CA"
242,Hotel,2790 MAIN ST,Morro Bay,CA,93442,8.0,,Planning,35.3918253,-120.8593881,"California Central Coast Area, CA","San Luis Obispo - California Central Coast Area, CA"
243,Hotel,295 ATASCADERO ROAD,Morro Bay,CA,93422,83.0,,Planning,35.380028,-120.8557243,"California Central Coast Area, CA","San Luis Obispo - California Central Coast Area, CA"
244,Destino Paso Resort,3350 Airport Road,Paso Robles,CA,93446,291.0,,Planning,35.650282,-120.637592,"California Central Coast Area, CA","San Luis Obispo - California Central Coast Area, CA"
245,Grover Beach Lodge,55 West Grand Ave,Grover Beach,CA,93433,144.0,,Planning,35.1212992,-120.6131974,"California Central Coast Area, CA","San Luis Obispo - California Central Coast Area, CA"
246,Hotel,6000 DEL RIO ROAD ROAD,Atascadero,CA,93422,,,Planning,35.4806,-120.6738,"California Central Coast Area, CA","San Luis Obispo - California Central Coast Area, CA"
247,Avila by the Sea Golf Course and Resort,6464 Ana Bay Rd,Avila Beach,CA,93424,135.0,,Planning,35.1822945,-120.7389919,"California Central Coast Area, CA","San Luis Obispo - California Central Coast Area, CA"
248,Inn,6645 Bay Laurel Place,Avila Beach,CA,93424,14.0,,Planning,35.189827,-120.721188,"California Central Coast Area, CA","San Luis Obispo - California Central Coast Area, CA"
249,Bridgewalk Hotel at Colony Square,6901 & 6903 El Camino Real,Atascadero,CA,93422,89.0,,Planning,35.4877882,-120.6654662,"California Central Coast Area, CA","San Luis Obispo - California Central Coast Area, CA"
250,Hotel Conversion,725 Embarcadero,Morro Bay,CA,93442,10.0,,Planning,35.365196,-120.853079,"California Central Coast Area, CA","San Luis Obispo - California Central Coast Area, CA"
251,Hotel,727 El Camino Real,Arroyo Grande,CA,93420,113.0,,Planning,35.122714,-120.5908154,"California Central Coast Area, CA","San Luis Obispo - California Central Coast Area, CA"
252,Harborwalk Plaza Mixed-Use Building,833 EMBARCADERO,Morro Bay,CA,93422,8.0,,Planning,35.366136,-120.853371,"California Central Coast Area, CA","San Luis Obispo - California Central Coast Area, CA"
253,Hotel,940 El Camino Real,Atascadero,CA,93422,131.0,,Pre-Planning,35.5268926,-120.7034602,"California Central Coast Area, CA","San Luis Obispo - California Central Coast Area, CA"
254,Ava Hotel,944 Pine St,Paso Robles,CA,93446,151.0,,Planning,35.623909,-120.688086,"California Central Coast Area, CA","San Luis Obispo - California Central Coast Area, CA"
255,SLO Airport Hotel Phase 1,950 and 990 Aero Dr,San Luis Obispo,CA,93401,100.0,,Planning,35.240854,-120.6381625,"California Central Coast Area, CA","San Luis Obispo - California Central Coast Area, CA"
256,SLO Airport Hotel Phase 2,950 and 990 Aero Dr,San Luis Obispo,CA,93401,118.0,,Planning,35.240854,-120.6381625,"California Central Coast Area, CA","San Luis Obispo - California Central Coast Area, CA"
257,Cypress Ridge Golf Course Mixed-Use,950 Cypress Ridge Parkway,Arroyo Grande,CA,93420,81.0,,Planning,35.0702406,-120.5775997,"California Central Coast Area, CA","San Luis Obispo - California Central Coast Area, CA"
258,Hotel Alexa,Alexa Court,Paso Robles,CA,93446,38.0,,Planning,35.5871468,-120.696366,"California Central Coast Area, CA","San Luis Obispo - California Central Coast Area, CA"
259,Hyatt Place Hotel,SEC Theatre Drive,Paso Robles,CA,93446,133.0,,Planning,35.5889607,-120.6996902,"California Central Coast Area, CA","San Luis Obispo - California Central Coast Area, CA"
260,Hotel and Meeting Facility,tbd,Morro Bay,CA,93442,221.0,,Pre-Planning,35.4197336,-120.8269231,"California Central Coast Area, CA","San Luis Obispo - California Central Coast Area, CA"
261,Hotel at Pacific West,W Branch St east of Oak Park Blvd,Pismo Beach,CA,93449,105.0,,Planning,35.1250105,-120.5935698,"California Central Coast Area, CA","San Luis Obispo - California Central Coast Area, CA"
262,Hotel/Mixed Used,W. Branch St,Arroyo Grande,CA,93420,166.0,,Pre-Planning,35.123162,-120.591567,"California Central Coast Area, CA","San Luis Obispo - California Central Coast Area, CA"
263,Garden Street Hotel,101 GARDEN STREET,Santa Barbara,CA,93101,250.0,,Planning,34.4183688,-119.6898859,"California Central Coast Area, CA","Santa Barbara - California Central Coast Area, CA"
264,Hotel,217 S MILPAS ST,Santa Barbara,CA,93103,7.0,,Planning,34.419358,-119.675722,"California Central Coast Area, CA","Santa Barbara - California Central Coast Area, CA"
265,Montecito Street Mixed Use Building,302 W Montecito St,Santa Barbara,CA,93101,32.0,,Planning,34.411726,-119.696868,"California Central Coast Area, CA","Santa Barbara - California Central Coast Area, CA"
266,Fairfield Inn and Suites Hotel,4110 Via Real,Carpinteria,CA,93013,72.0,,Planning,34.4055275,-119.5348094,"California Central Coast Area, CA","Santa Barbara - California Central Coast Area, CA"
267,Blue Sands Inn Renovations,421 S Milpas St,Santa Barbara,CA,93103,,,Planning,34.4174998,-119.6728902,"California Central Coast Area, CA","Santa Barbara - California Central Coast Area, CA"
268,Waterfront Hotel Development,433 E CABRILLO ST,Santa Barbara,CA,93101,86.0,,Planning,34.4134816,-119.6878705,"California Central Coast Area, CA","Santa Barbara - California Central Coast Area, CA"
269,Surfliner Inn,499 Linden Ave,Carpinteria,CA,93013,40.0,,Planning,34.396509,-119.522653,"California Central Coast Area, CA","Santa Barbara - California Central Coast Area, CA"
270,Chapala Hotel,517 Chapala St,Santa Barbara,CA,93101,17.0,,Planning,34.415916,-119.696948,"California Central Coast Area, CA","Santa Barbara - California Central Coast Area, CA"
271,Calle Real Hotel,5955 Calle Real,Goleta,CA,93117,128.0,,Planning,34.440737,-119.82935259999999,"California Central Coast Area, CA","Santa Barbara - California Central Coast Area, CA"
272,Hotel / Parking Garage,926 INDIO MUERTO ST,Santa Barbara,CA,93103,111.0,,Planning,34.4193329,-119.6740218,"California Central Coast Area, CA","Santa Barbara - California Central Coast Area, CA"
273,Hotel,1420 Mission Dr,Solvang,CA,93463,12.0,,Planning,34.5944309,-120.1477903,"California Central Coast Area, CA","Santa Maria - California Central Coast Area, CA"
274,Anacapa Ranch Hotel,197 Bell St,Los Alamos,CA,93440,44.0,,Planning,34.744551,-120.283371,"California Central Coast Area, CA","Santa Maria - California Central Coast Area, CA"
275,Inn at Mattei's Tavern,2326 Railway Ave,Los Olivos,CA,93441,67.0,,Planning,34.6673254,-120.1175652,"California Central Coast Area, CA","Santa Maria - California Central Coast Area, CA"
276,Hotel Conversion -New Haven,261 Alisal Road,Solvang,CA,93463,10.0,,Planning,34.59079,-120.140467,"California Central Coast Area, CA","Santa Maria - California Central Coast Area, CA"
277,Solvang Suites Hotel Renovation,425 First St,Solvang,CA,93463,25.0,,Planning,34.594094,-120.140255,"California Central Coast Area, CA","Santa Maria - California Central Coast Area, CA"
278,Atterdag Inn Expansion,459 and 467 Atterdag Road,Solvang,CA,93463,37.0,,Planning,34.6078,-120.1331,"California Central Coast Area, CA","Santa Maria - California Central Coast Area, CA"
279,Cher-Ae Heights Casino Hotel,Cher-Ae Ln,Trinidad,CA,95570,100.0,,Underway,41.054564,-124.1297683,"California North Area, CA","Eureka - California North Area, CA"
280,Elk Valley Rancheria Hotel Ph 2,Humboldt Rd & Hwy 101,Crescent City,CA,95531,100.0,,Planning,41.7361979,-124.154213,"California North Area, CA","Eureka - California North Area, CA"
281,Redwood Hotel Expansion,,Klamath,CA,95548,56.0,,Planning,41.5265092,-124.0384069,"California North Area, CA","Eureka - California North Area, CA"
282,Avalon Hotel - Fort Bragg CA,1201 N Main St,Fort Bragg,CA,95437,65.0,,Planning,39.462274,-123.8064086,"California North Area, CA","North California - California North Area, CA"
283,Hampton Inn & Suites Hotel - Chico CA,1651 Springfield Dr,Chico,CA,95928,148.0,2021-05-01,Underway,39.728494,-121.83747,"California North Area, CA","North California - California North Area, CA"
284,North Village Hotel - Healdsburg CA,16977 Healdsburg Ave,Healdsburg,CA,95488,108.0,,Planning,38.6442849,-122.8706512,"California North Area, CA","North California - California North Area, CA"
285,West Olympic Center Hotel,1812 E Main St,Grass Valley,CA,95945,74.0,,Planning,39.1766853,-120.9646866,"California North Area, CA","North California - California North Area, CA"
286,Harbin Hot Springs - Phase 3,18424 HARBIN SPRINGS RD,Middletown,CA,95461,,,Planning,38.78518,-122.6526461,"California North Area, CA","North California - California North Area, CA"
287,Bohn Ridge Resort @ Maha / Guenoc Valley,22000 Butts Canyon Rd,Middletown,CA,95461,99.0,,Planning,38.7335886,-122.5259599,"California North Area, CA","North California - California North Area, CA"
288,Resort at Trout Flat @ Maha / Guenoc Valley,22000 Butts Canyon Rd,Middletown,CA,95461,33.0,,Planning,38.7335886,-122.5259599,"California North Area, CA","North California - California North Area, CA"
289,Maha Resort / Guenoc Valley Spa with Villas,22000 Butts Canyon Rd,Middletown,CA,95461,11.0,,Planning,38.7335886,-122.5259599,"California North Area, CA","North California - California North Area, CA"
290,Maha Farm / Sales Center @ Guenoc Valley,22000 Butts Canyon Rd,Middletown,CA,95461,48.0,,Planning,38.7335886,-122.5259599,"California North Area, CA","North California - California North Area, CA"
291,Hampton Inn & Suites Hotel - Oroville CA,2355 Feather River Blvd,Oroville,CA,95965,86.0,,Planning,39.4995831,-121.5699295,"California North Area, CA","North California - California North Area, CA"
292,Barovetto Place Extended Stay Hotel,2nd St & A St,Davis,CA,95616,100.0,,Planning,38.542265,-121.746607,"California North Area, CA","North California - California North Area, CA"
293,Maidu Village Hotel,435 S Auburn St,Colfax,CA,95713,70.0,,Planning,39.094364,-120.9508186,"California North Area, CA","North California - California North Area, CA"
294,Hotel /Parking Garage @ Rain Rock Casino - Phase 2,777 Casino Way,Yreka,CA,96097,80.0,,Pre-Planning,41.7085542,-122.6331877,"California North Area, CA","North California - California North Area, CA"
295,La Quinta Del Sol Hotel,Colonnade Dr & Red Rock RD,Lincoln,CA,95648,104.0,,Planning,38.8525819,-121.2908372,"California North Area, CA","North California - California North Area, CA"
296,Placer Creek Corporate Center Hotel,Hwy 65 and Whitney Ranch,Rocklin,CA,95648,100.0,,Planning,38.8309071,-121.2877248,"California North Area, CA","North California - California North Area, CA"
297,Best Western Hotel Auburn Street,S Auburn St & Whitcomb,Colfax,CA,95713,69.0,,Planning,39.093163,-120.950915,"California North Area, CA","North California - California North Area, CA"
298,Terra Vi Lodge Yosemite,11262 Sawmill Mountain Rd,Groveland,CA,95321,131.0,,Planning,37.8437766,-119.9535408,"California Northcentral Area, CA","California Northcentral Area, CA"
299,Ridgemark Hotel/Swimming Pool,151 Ridgemark Dr,Hollister,CA,95023,166.0,,Pre-Planning,36.8137619,-121.367342,"California Northcentral Area, CA","California Northcentral Area, CA"
300,Hotel @ Yosemite Crossing,G St and Yosemite Ave,Merced,CA,95340,128.0,,Planning,37.33218,-120.4690562,"California Northcentral Area, CA","California Northcentral Area, CA"
301,Limelight Hotel & Residences - Mammoth Ski Resort,10001 Minaret Rd,Mammoth Lakes,CA,93546,,,Pre-Planning,37.650659,-119.0370583,"California South Central Area, CA","South Central California - California South Central Area, CA"
302,Timbisha Shoshone Casino - Phase 2,1401 N China Lake Blvf,Ridgecrest,CA,93555,100.0,,Planning,35.6461617,-117.6698086,"California South Central Area, CA","South Central California - California South Central Area, CA"
303,Old Mammoth Place,248 Old Mammoth Road,Mammoth Lakes,CA,93546,460.0,,Planning,37.6425257,-118.9666463,"California South Central Area, CA","South Central California - California South Central Area, CA"
304,Highmark Mammoth Hotel @ Sierra Center Mall,452 Old Mammoth Rd,Mammoth Lakes,CA,93546,146.0,,Planning,37.6395856,-118.9675105,"California South Central Area, CA","South Central California - California South Central Area, CA"
305,SilverTip Village Resort,7733 Fish Camp Lane,Fish Camp,CA,93623,167.0,,Planning,37.4806731,-119.6405572,"California South Central Area, CA","South Central California - California South Central Area, CA"
306,Hotel,Berner St and Forest Trail,Mammoth Lakes,CA,93546,110.0,,Pre-Planning,37.6520999,-118.9836277,"California South Central Area, CA","South Central California - California South Central Area, CA"
307,North Fork Rancheria Casino/Hotel & Parking Structure,Highway 99 and Avenue 17,Madera,CA,93643,200.0,,Planning,37.4434319,-120.7895121,"California South Central Area, CA","South Central California - California South Central Area, CA"
308,Marriott Townplace Suites Hotel,Magellan Dr,Tehachapi,CA,93561,82.0,2021-08-01,Underway,35.141472,-118.447705,"California South Central Area, CA","South Central California - California South Central Area, CA"
309,TownPlace Suites Hotel,Site to be Announced,Ridgecrest,CA,93555,100.0,,Pre-Planning,35.6224561,-117.6708966,"California South Central Area, CA","South Central California - California South Central Area, CA"
310,Townplace Suites Hotel by Marriott - Ridgecrest CA,Ward Ave & Chelsea St,Ridgecrest,CA,93555,96.0,,Planning,35.6440352,-117.6595025,"California South Central Area, CA","South Central California - California South Central Area, CA"
311,Hampton Inn Hotel,12TH STREET AND,Hanford,CA,93230,105.0,,Planning,36.3159183,-119.671897,"California South Central Area, CA","Visalia - California South Central Area, CA"
312,RFP/CM: Eagle Mountain Casino/Hotel/Convention Center,2780 West Road,Porterville,CA,93257,250.0,,Bidding,36.043927,-119.070825,"California South Central Area, CA","Visalia - California South Central Area, CA"
313,Hilton Garden Inn Hotel - Visalia CA,8715 W Hillsdale Ave,Visalia,CA,93291,113.0,2021-11-01,Underway,36.328856,-119.3589156,"California South Central Area, CA","Visalia - California South Central Area, CA"
314,Home 2 Suites - Visalia,Plaza Dr & E Crowley Ave,Visalia,CA,93291,82.0,,Bidding,36.3308491,-119.3908631,"California South Central Area, CA","Visalia - California South Central Area, CA"
315,Hotel,3105 S. Dogwood Avenue,El Centro,CA,92243,79.0,,Planning,32.7653739,-115.5339427,"California Southeast Area, CA","California Southeast Area, CA"
316,Residence Inn,3409 S. Dogwood Avenue,El Centro,CA,92243,128.0,,Planning,32.7631907,-115.5343414,"California Southeast Area, CA","California Southeast Area, CA"
317,Marina Resort Renovations,40770 Big Bear Boulevard,Big Bear Lake,CA,92315,42.0,,Planning,34.243756,-116.912248,"California Southeast Area, CA","California Southeast Area, CA"
318,Black Forest Lodge Commercial Lodging Building,41121 Big Bear Boulevard,Big Bear Lake,CA,92315,10.0,,Planning,34.243542,-116.905303,"California Southeast Area, CA","California Southeast Area, CA"
319,Hampton Inn Needles,O Street & Needles Highway,Needles,CA,92363,96.0,,Planning,34.8484522,-114.6152267,"California Southeast Area, CA","California Southeast Area, CA"
320,Mecca Luxury Resort,TBA,Mecca,CA,92254,50.0,,Pre-Planning,33.571692,-116.0772244,"California Southeast Area, CA","California Southeast Area, CA"
321,Econo Inn Rehabilitation,1828 Broadway St #1002,Fresno,CA,93721,30.0,,Pre-Planning,36.741544,-119.800223,"Fresno, CA","Fresno, CA"
322,Table Mountain Rancheria Casino/Hotel Expansion,8184 Table Mountain Rd,Friant,CA,93626,151.0,2021-12-01,Underway,37.0179,-119.6868,"Fresno, CA","Fresno, CA"
323,"Residence Inn by Marriott and Swimming Pool (Clovis, CA)",820 Santa Ana Ave,Clovis,CA,93612,111.0,2021-08-01,Underway,36.8048498,-119.6968686,"Fresno, CA","Fresno, CA"
324,Fahrney Hilton Hampton Inn,Floral Ave,Selma,CA,93662,90.0,,Bidding,36.5762466,-119.6148429,"Fresno, CA","Fresno, CA"
325,Hotel - Madera CA,Hwy 99 & 17th Ave,Madera,CA,93638,90.0,,Planning,36.9894598,-120.0927553,"Fresno, CA","Fresno, CA"
326,Holiday Inn & Suites Hotel,1001 E Colorado St,Glendale,CA,91205,134.0,2021-09-01,Underway,34.142691,-118.242525,"Los Angeles, CA",Burbank/Glendale
327,Holiday Inn Express & Suites Glendale,1011 E Colorado St,Glendale,CA,91205,134.0,2021-08-01,Underway,,,"Los Angeles, CA",Burbank/Glendale
328,AC Hotel,120 W Colorado St,Glendale,CA,91204,,,Pre-Planning,34.1422217,-118.2558372,"Los Angeles, CA",Burbank/Glendale
329,Hampton Inn by Hilton North Hollywood,12409 Victory Blvd,North Hollywood,CA,91606,80.0,2022-04-01,Underway,34.1848919,-118.3596416,"Los Angeles, CA",Burbank/Glendale
330,Victory Hotel,1633 Victory Blvd ,Glendale,CA,91201,46.0,,Planning,34.1684315,-118.290315,"Los Angeles, CA",Burbank/Glendale
331,Cambria Burbank Hotel,2801 N Hollywood Way,Burbank,CA,91505,150.0,,Planning,34.2055859,-118.351433,"Los Angeles, CA",Burbank/Glendale
332,Avion Burbank Hotel,3001 N Hollywood Way ,Burbank,CA,91505,123.0,,Planning,34.2034841,-118.3488532,"Los Angeles, CA",Burbank/Glendale
333,Hotel,5041 Lankershim Blvd,Los Angeles,CA,91601,,,Pre-Planning,34.1619507,-118.3731919,"Los Angeles, CA",Burbank/Glendale
334,AC Hotels by Marriott Los Angeles Burbank,550 N 3rd St,Burbank,CA,91502,196.0,2022-01-01,Underway,34.185349,-118.311919,"Los Angeles, CA",Burbank/Glendale
335,Burbank Town Center Hotel/Mixed Use Phase 1C,601 N San Fernando Blvd Cypress Blvd,Burbank,CA,91502,200.0,,Planning,34.184591,-118.314149,"Los Angeles, CA",Burbank/Glendale
336,N Brand Blvd Hotel,611 N Brand Blvd ,Glendale,CA,91203,857.0,,Pre-Planning,34.1552476,-118.2556317,"Los Angeles, CA",Burbank/Glendale
337,Hotel,"6439/6443/6445 N Lankershim Blvd, 11719/",North Hollywood,CA,91606,89.0,,Planning,34.187786,-118.3880805,"Los Angeles, CA",Burbank/Glendale
338,Hotel at the Line at Burbank,777 N Front St,Burbank,CA,91502,,,Pre-Planning,34.183453,-118.31689,"Los Angeles, CA",Burbank/Glendale
339,The Line at Burbank Hotel,787 N Front St,Burbank,CA,91502,300.0,,Planning,34.1843324,-118.3185332,"Los Angeles, CA",Burbank/Glendale
340,Project Homekey Motel,9120 Woodman Ave,Los Angeles,CA,91331,74.0,,Pre-Planning,34.2359924,-118.4403735,"Los Angeles, CA",Burbank/Glendale
341,Luxury Hotel,"Brand & Glenoaks Blvd, SWC",Glendale,CA,91202,226.0,,Pre-Planning,34.15856,-118.2557229,"Los Angeles, CA",Burbank/Glendale
342,CSUN Hotel,18111 NORDHOFF ST Nordhoff St and Matador Way,Northridge,CA,91330,149.0,2023-06-01,Planning,34.2399163,-118.526252,"Los Angeles, CA",Chatsworth/Northridge
343,20401 W Ventura Blvd Boutique Hotel,20401 W Ventura Blvd ,Woodland Hills,CA,91364,149.0,,Pre-Planning,34.169042,-118.5775664,"Los Angeles, CA",Chatsworth/Northridge
344,Hampton Inn by Hilton Woodland Hills,21322 Oxnard Street ,Woodland Hills,CA,91367,125.0,2023-07-01,Pre-Planning,34.1789325,-118.5959162,"Los Angeles, CA",Chatsworth/Northridge
345,Hotel,21342 W Devonshire St,Chatsworth,CA,91311,76.0,,Pre-Planning,34.257178,-118.596068,"Los Angeles, CA",Chatsworth/Northridge
346,Cambria Hotel,"26300 Rondell St, near Las Virgenes St",Calabasas,CA,91302,125.0,2021-09-01,Underway,34.1457594,-118.6975808,"Los Angeles, CA",Chatsworth/Northridge
347,La Quinta Inn & Suites Hotel,5746 N Sepulveda Blvd,Van Nuys,CA,91411,73.0,,Pre-Planning,34.1684832,-118.4659329,"Los Angeles, CA",Chatsworth/Northridge
348,Home2 Suites by Hilton Woodland Hills Los Angeles,5957 Variel Ave,Woodland Hills,CA,91367,170.0,2021-10-27,Underway,34.178661,-118.59272,"Los Angeles, CA",Chatsworth/Northridge
349,District at Warner Center Phase 3,6100 Canoga Ave,Los Angeles,CA,91367,204.0,,Planning,34.181332,-118.5956853,"Los Angeles, CA",Chatsworth/Northridge
350,Fairfield Inn Hotel,9755 N Topanga Canyon Blvd Marilla Street,Chatsworth,CA,91311,105.0,,Planning,34.247753,-118.6064455,"Los Angeles, CA",Chatsworth/Northridge
351,Topanga Canyon Blvd Hotel,9777 N Topanga Canyon Blvd,Chatsworth,CA,91311,105.0,,Planning,34.2485164,-118.6065136,"Los Angeles, CA",Chatsworth/Northridge
352,Warner Center Building 6 Hotel PHASE 4,Burbank Blvd and DeSoto Ave 20950-21031 W Warner Center Ln,Woodland Hills,CA,91367,210.0,2029-07-01,Planning,34.1743712,-118.5905739,"Los Angeles, CA",Chatsworth/Northridge
353,Residence Inn Santa Clarita Chatsworth,Lassen St & Mason Ave,Chatsworth,CA,91311,125.0,2021-08-19,Final Planning,,,"Los Angeles, CA",Chatsworth/Northridge
354,Fairfield Inn & Suites Los Angeles Pomona,1791 Gillette Rd,Pomona,CA,91768,105.0,2021-11-11,Planning,,,"Los Angeles, CA",Covina/Pomona
355,Marriott Residence Inn Hotel,18800 Gale Ave ,Rowland Heights,CA,91748,55.0,,Planning,33.9945533,-117.8937591,"Los Angeles, CA",Covina/Pomona
356,Hilton Garden Inn Pomona,2027 Rancho Valley Drive ,Pomona,CA,91766,148.0,2021-03-15,Underway,,,"Los Angeles, CA",Covina/Pomona
357,Pioneer Square Mixed-Use,"344 W. Bonita Avenue, south side of Boni",San Dimas,CA,91773,50.0,,Pre-Planning,34.0963572,-117.7185339,"Los Angeles, CA",Covina/Pomona
358,Hotel,600-622 N. San Gabriel Ave,Azusa,CA,91702,,,Pre-Planning,34.131819,-117.908426,"Los Angeles, CA",Covina/Pomona
359,Hampton Inn & Suites Claremont,721 S Indian Hill Blvd,Claremont,CA,91711,117.0,2021-04-15,Final Planning,,,"Los Angeles, CA",Covina/Pomona
360,Hampton Inn & Suites by Hilton Diamond Bar Los Angeles,850 Brea Canyon Rd,Diamond Bar,CA,91789,110.0,2023-01-01,Pre-Planning,34.0019039,-117.8443186,"Los Angeles, CA",Covina/Pomona
361,BKK Landfill Development,BKK Landfill ,West Covina,CA,91792,,,Pre-Planning,34.0316929,-117.9143398,"Los Angeles, CA",Covina/Pomona
362,Comfort Inn & Suites Montebello,524 Washington Blvd,Montebello,CA,90640,52.0,2022-02-01,Final Planning,33.992901,-118.113763,"Los Angeles, CA",Downey/Norwalk
363,Candlewood Suites Extended Stay Hotel,6605 ROSEMEAD BLVD ,Pico Rivera,CA,90660,86.0,,Planning,33.98575,-118.095692,"Los Angeles, CA",Downey/Norwalk
364,Springhill Suites Los Angeles Downey,9066 Firestone Blvd,Downey,CA,90241,140.0,2022-07-01,Planning,33.934381,-118.122616,"Los Angeles, CA",Downey/Norwalk
365,Telegraph Road & Norwalk Blvd Parcel 2 Hotel,Telegraph Rd and Norwalk Blvd ,Santa Fe Springs,CA,90670,110.0,,Pre-Planning,33.9418474,-118.0727814,"Los Angeles, CA",Downey/Norwalk
366,Equinox Hotel @ Grand Avenue,100 S Grand Ave,Los Angeles,CA,90015,300.0,2022-01-01,Underway,,,"Los Angeles, CA",Downtown LA/Convention Center
367,Hotel,"101/111/101/115 N Glendale Blvd, 1504/15",Los Angeles,CA,90026,185.0,2022-05-01,Planning,34.0624864,-118.2602953,"Los Angeles, CA",Downtown LA/Convention Center
368,Hotel Barclay,103 W 4th St,Los Angeles,CA,90013,,,Planning,34.0483721,-118.2472169,"Los Angeles, CA",Downtown LA/Convention Center
369,Hampton Inn & Suites Los Angeles County Hospital,1030 N Soto St,Los Angeles,CA,90033,85.0,2021-07-01,Underway,,,"Los Angeles, CA",Downtown LA/Convention Center
370,Desmond/AEG Entertainment Hotel,"1099/1051/1053/1055 S Grand Ave, 411 W 1",Los Angeles,CA,90015,160.0,,Pre-Planning,34.0419897,-118.2619851,"Los Angeles, CA",Downtown LA/Convention Center
371,Downtown LA Proper Hotel,1100 S Broadway,Los Angeles,CA,90015,148.0,2021-04-01,Underway,34.039462,-118.259027,"Los Angeles, CA",Downtown LA/Convention Center
372,Park Hyatt Los Angeles @ Oceanwide Plaza,1101 S Flower St,Los Angeles,CA,90015,184.0,2022-01-01,Underway,,,"Los Angeles, CA",Downtown LA/Convention Center
373,Hilton Home2 Suites Hotel,1111 W 7th Street ,Los Angeles,CA,90017,126.0,2022-06-01,Underway,34.0511336,-118.2646313,"Los Angeles, CA",Downtown LA/Convention Center
374,1111 Sunset Boutique Hotel,1111 W Sunset Blvd ,Los Angeles,CA,90012,98.0,,Planning,34.0661344,-118.2488706,"Los Angeles, CA",Downtown LA/Convention Center
375,Hotel,1130 S Hope St,Los Angeles,CA,90015,144.0,,Planning,34.0412915,-118.2635116,"Los Angeles, CA",Downtown LA/Convention Center
376,Broadway and 11th Hyatt Centric Hotel,1138-1139-1140 S Broadway 11th Street,Los Angeles,CA,90015,139.0,2024-01-01,Planning,34.0387829,-118.259446,"Los Angeles, CA",Downtown LA/Convention Center
377,12th and Olive - 51 Story South Park PHASE 3 Mixed Use Tower,1155 S Olive Street 11th St - 12th St,Los Angeles,CA,90015,243.0,,Planning,,,"Los Angeles, CA",Downtown LA/Convention Center
378,Morrison Hotel Renovation & New Tower,"1220-1246 S Hope St, 427-435 W Pico Blvd",Los Angeles,CA,90015,573.0,,Planning,34.0401489,-118.2645622,"Los Angeles, CA",Downtown LA/Convention Center
379,Hotel,124 E Olympic Blvd S Main Street - Broadway,Los Angeles,CA,90015,149.0,,Planning,34.0396914,-118.2562969,"Los Angeles, CA",Downtown LA/Convention Center
380,Fig + Pico Twin Hotel Complex,1248 S Figueroa Street 601 W Pico Blvd and Flower St,Los Angeles,CA,90015,740.0,2022-09-01,Underway,34.0404478,-118.2669881,"Los Angeles, CA",Downtown LA/Convention Center
381,TriCal Hotel - LA Convention Center,1300 S Figueroa Street West Pico Blvd,Los Angeles,CA,90015,1024.0,,Planning,34.0400859,-118.2676776,"Los Angeles, CA",Downtown LA/Convention Center
382,1320 Flower Street Hotel/Mixed Use,1320 S Flower St ,Los Angeles,CA,90015,45.0,2022-09-01,Planning,34.039465,-118.267182,"Los Angeles, CA",Downtown LA/Convention Center
383,The Albany Convention Center Hotel,"1330 W Pico Blvd,1308-1346 S Albany St ",Los Angeles,CA,90015,696.0,2025-07-01,Planning,34.0427415,-118.2735365,"Los Angeles, CA",Downtown LA/Convention Center
384,Palo Alto Hotel,1625 W Palo Alto Street ,Los Angeles,CA,90026,88.0,,Planning,34.0694342,-118.2620068,"Los Angeles, CA",Downtown LA/Convention Center
385,2001 Olympic Blvd Hotel,2001 W Olympic Blvd ,Los Angeles,CA,90006,150.0,,Pre-Planning,34.051696,-118.27893,"Los Angeles, CA",Downtown LA/Convention Center
386,Staybridge Suites Hotel,2005 W James M Wood Blvd South Westlake Ave,Los Angeles,CA,90006,100.0,,Planning,34.0531703,-118.2777403,"Los Angeles, CA",Downtown LA/Convention Center
387,Rendon Hotel Addition & Renovation,2053-2055 E 7th Street ,Los Angeles,CA,90021,50.0,,Planning,34.0347764,-118.2302392,"Los Angeles, CA",Downtown LA/Convention Center
388,Best Western Hotel,2211 S Western Ave ,Los Angeles,CA,90018,81.0,,Planning,34.0361058,-118.3094593,"Los Angeles, CA",Downtown LA/Convention Center
389,2250 W Pico Blvd Hotel,"2250/2260/2268/2270 W Pico, 1309/1315 S ",Los Angeles,CA,90006,125.0,,Planning,34.0469678,-118.2853767,"Los Angeles, CA",Downtown LA/Convention Center
390,Hampton Inn Hotel,2405 Pomeroy Avenue ,Los Angeles,CA,90033,81.0,2021-08-01,Underway,34.053659,-118.203133,"Los Angeles, CA",Downtown LA/Convention Center
391,Mansfield Avenue Hotel,2454 S Mansfield Avenue ,Los Angeles,CA,90016,78.0,,Planning,34.0330114,-118.3517122,"Los Angeles, CA",Downtown LA/Convention Center
392,Best Western Plus Hotel,2645 S Western Ave ,Los Angeles,CA,90018,50.0,2021-10-01,Underway,34.031414,-118.309278,"Los Angeles, CA",Downtown LA/Convention Center
393,Hotel,2813 Flower St,Los Angeles,CA,90007,47.0,,Planning,34.0256869,-118.2763731,"Los Angeles, CA",Downtown LA/Convention Center
394,Dual-Branded Hotel,3031-3105 Figueroa St,Los Angeles,CA,90007,150.0,2024-07-01,Planning,34.0270874,-118.2763855,"Los Angeles, CA",Downtown LA/Convention Center
395,Dual-Branded Hotel,3031-3105 Figueroa St,Los Angeles,CA,90007,125.0,2024-07-01,Planning,34.0270874,-118.2763855,"Los Angeles, CA",Downtown LA/Convention Center
396,5th & Hill Mixed Use Building,"319-323 W 5th St, 440-442 S Hill ST",Los Angeles,CA,90013,221.0,,Planning,34.052234,-118.24368,"Los Angeles, CA",Downtown LA/Convention Center
397,citizenM Los Angeles,361 S Spring St,Los Angeles,CA,90013,315.0,2021-08-01,Underway,34.055584,-118.242084,"Los Angeles, CA",Downtown LA/Convention Center
398,Hotel,"3685/3671/3689 S Vermont Ave, 1111 W 37t",Los Angeles,CA,90007,168.0,,Pre-Planning,34.0211946,-118.2923063,"Los Angeles, CA",Downtown LA/Convention Center
399,Hotel,"402-408 S Spring St, 122-148 W 4th St ",Los Angeles,CA,90013,140.0,,Pre-Planning,34.0484284,-118.248019,"Los Angeles, CA",Downtown LA/Convention Center
400,Cambria hotel & suites Los Angeles,419 S Spring St,Los Angeles,CA,90013,180.0,2021-10-01,Underway,34.048556,-118.248622,"Los Angeles, CA",Downtown LA/Convention Center
401,Dazzler Hotel Clark,426 S Hill St,Los Angeles,CA,90013,348.0,2022-03-01,Underway,,,"Los Angeles, CA",Downtown LA/Convention Center
402,Mixed Use Building,"445-457 S Colyton St, 450-456 S Seaton S",Los Angeles,CA,90013,242.0,,Planning,,,"Los Angeles, CA",Downtown LA/Convention Center
403,Adams Blvd Hotel,5170-5187 W Adams Blvd ,Los Angeles,CA,90016,43.0,2021-10-01,Underway,34.032562,-118.354978,"Los Angeles, CA",Downtown LA/Convention Center
404,Hilton Los Angeles/Universal City Hotel,555 Universal Hollywood Dr ,Universal City,CA,91608,395.0,,Planning,34.136443,-118.358042,"Los Angeles, CA",Downtown LA/Convention Center
405,Hotel,"621 W Pico Blvd, 1260 S Figueroa St",Los Angeles,CA,90015,775.0,,Pre-Planning,,,"Los Angeles, CA",Downtown LA/Convention Center
406,Spring Street Hotel,631-635 S Spring St,Los Angeles,CA,90014,170.0,,Planning,34.045349,-118.2519166,"Los Angeles, CA",Downtown LA/Convention Center
407,Stay on the Main/Cecil Hotel,640 S Main Street,Los Angeles,CA,90014,301.0,,Planning,34.0442774,-118.2507798,"Los Angeles, CA",Downtown LA/Convention Center
408,Home 2 Suites by Hilton,685 S Bixel Street,Los Angeles,CA,90017,123.0,2021-08-01,Underway,34.051297,-118.26397,"Los Angeles, CA",Downtown LA/Convention Center
409,Beaux Arts Building Redevelopment,801 S Broadway,Los Angeles,CA,90014,186.0,,Planning,34.0437269,-118.255512,"Los Angeles, CA",Downtown LA/Convention Center
410,JW Marriott & Ritz Carlton Expansion,"900 W Olympic Blvd, 948 Georgia St",Los Angeles,CA,90015,850.0,2022-12-01,Planning,34.0459511,-118.2670146,"Los Angeles, CA",Downtown LA/Convention Center
411,Cambria Hotel @ LA Live,926 James M Wood Blvd,Los Angeles,CA,90015,247.0,2023-11-26,Planning,34.047,-118.264763,"Los Angeles, CA",Downtown LA/Convention Center
412,Boutique Hotel,956-962 S Menlo Ave,Los Angeles,CA,90006,96.0,,Planning,34.053839,-118.2900495,"Los Angeles, CA",Downtown LA/Convention Center
413,Dewey Avenue Hotel,966 S DEWEY AVE ,Los Angeles,CA,90006,99.0,,Planning,34.053425,-118.2955445,"Los Angeles, CA",Downtown LA/Convention Center
414,Hilton Garden Inn @ Fig + Pico,Fronting Pico Blvd & Figueroa St & Flower St,Los Angeles,CA,90015,,,Abandoned,,,"Los Angeles, CA",Downtown LA/Convention Center
415,Hyatt Place & Residences,111 W VALLEY BLVD ,San Gabriel,CA,91776,222.0,2022-07-01,Underway,34.079774,-118.100121,"Los Angeles, CA",East LA/Monterey
416,Wingate by Wyndham El Monte,12300 Valley Blvd,El Monte,CA,91732,72.0,2022-07-01,Planning,34.0593695,-118.0131402,"Los Angeles, CA",East LA/Monterey
417,Hotel and Parking Structure,2225 West Commonwealth Ave ,Alhambra,CA,91803,134.0,,Planning,34.088444,-118.1505311,"Los Angeles, CA",East LA/Monterey
418,The Vine at The Gateway Mixed-Use- Residence Inn,"3333-3335 Santa Anita Avenue,",El Monte,CA,91731,175.0,,Planning,34.0696133,-118.0421731,"Los Angeles, CA",East LA/Monterey
419,Courtyard Los Angeles Rosemead,500 Montebello Blvd,Rosemead,CA,91770,105.0,2022-03-31,Final Planning,,,"Los Angeles, CA",East LA/Monterey
420,Residence Inn Los Angeles Rosemead,500 Montebello Blvd,Rosemead,CA,91770,97.0,2021-09-19,Final Planning,,,"Los Angeles, CA",East LA/Monterey
421,Courtyard Los Angeles Monterey Park,555 N Atlantic Blvd,Monterey Park,CA,91754,288.0,2021-03-01,Underway,34.067815,-118.134403,"Los Angeles, CA",East LA/Monterey
422,AG Hotel/Residential/Retail Mixed Use,808 W Garvey Avenue ,Monterey Park,CA,91754,246.0,,Planning,34.0621572,-118.134945,"Los Angeles, CA",East LA/Monterey
423,The Santa Fe at The Gateway,Fronting interstate 10 Fwy,El Monte,CA,91731,250.0,,Planning,34.0848443,-118.033012,"Los Angeles, CA",East LA/Monterey
424,Mail Order District - Annex Hotel,Olympic Blvd and Rio Vista Ave LA River,Los Angeles,CA,90023,120.0,,Planning,34.0253853,-118.2226949,"Los Angeles, CA",East LA/Monterey
425,Hotel/Mixed Use,1040 La Brea Avenue Santa Monica Blvd,West Hollywood,CA,90038,99.0,,Planning,34.0900377,-118.3436033,"Los Angeles, CA",Hollywood/Beverly Hills
426,The Lasky Hotel,140 S Lasky Dr,Beverly Hills,CA,90210,66.0,,Planning,34.0656409,-118.4097838,"Los Angeles, CA",Hollywood/Beverly Hills
427,The Godfrey Hotel Hollywood,1400 Cahuenga Blvd,Los Angeles,CA,90028,220.0,2021-04-01,Underway,34.096243,-118.329425,"Los Angeles, CA",Hollywood/Beverly Hills
428,1434-1450 S Robertson Blvd Hotel,1434-1456 S Robertson Blvd ,Los Angeles,CA,90035,112.0,,Pre-Planning,34.0536355,-118.3836593,"Los Angeles, CA",Hollywood/Beverly Hills
429,Hotel Nue Hollywood Hyatt Unbound,1525 N Cahuenga Blvd,Los Angeles,CA,90028,64.0,2021-08-01,Underway,34.098714,-118.329576,"Los Angeles, CA",Hollywood/Beverly Hills
430,Thompson Hotel Hollywood,1541 Wilcox Ave,Los Angeles,CA,90028,190.0,2021-06-01,Underway,34.098586,-118.331083,"Los Angeles, CA",Hollywood/Beverly Hills
431,Schrader Hotel,1600 N Schrader Blvd ,Los Angeles,CA,90028,198.0,,Planning,34.0998728,-118.3324652,"Los Angeles, CA",Hollywood/Beverly Hills
432,Hotel,1700/1715/1706/1710/1708/1704 N La Brea ,Los Angeles,CA,90046,85.0,,Planning,34.1021224,-118.3449688,"Los Angeles, CA",Hollywood/Beverly Hills
433,Whiskey Hotel,1717 N Wilcox Ave ,Los Angeles,CA,90028,133.0,2022-02-01,Underway,34.1023005,-118.3312205,"Los Angeles, CA",Hollywood/Beverly Hills
434,CitizenM Boutique Hotel,1718 Vine Street Hollywood Blvd,Los Angeles,CA,90028,216.0,2022-12-01,Planning,34.1023092,-118.3263455,"Los Angeles, CA",Hollywood/Beverly Hills
435,Emile Mid-Rise Hotel,1719-1731 N Whitley Ave,Los Angeles,CA,90028,160.0,,Planning,34.1024037,-118.3336462,"Los Angeles, CA",Hollywood/Beverly Hills
436,Hotel,1723 N Wilcox Ave ,Los Angeles,CA,90028,81.0,,Pre-Planning,34.1023933,-118.3312846,"Los Angeles, CA",Hollywood/Beverly Hills
437,Apartment/Hotel Building,2000 N Highland Ave,Los Angeles,CA,90068,18.0,,Pre-Planning,34.1073977,-118.337192,"Los Angeles, CA",Hollywood/Beverly Hills
438,Hampton Inn & Suites Los Angeles Koreatown,301 S Harvard Blvd,Los Angeles,CA,90020,171.0,2021-11-01,Underway,,,"Los Angeles, CA",Hollywood/Beverly Hills
439,Kimpton Koreatown,3240 Wilshire Blvd,Los Angeles,CA,90010,160.0,2023-10-01,Planning,34.061447,-118.2925368,"Los Angeles, CA",Hollywood/Beverly Hills
440,3242 8th Street Apartment Hotel,"3242/3250 W 8th St, 801/807/811 S Maripo",Los Angeles,CA,90005,86.0,,Planning,34.0577029,-118.2987339,"Los Angeles, CA",Hollywood/Beverly Hills
441,Hyatt Centric Korea Town Los Angeles,3800 W 6th St,Los Angeles,CA,90020,310.0,2023-02-01,Final Planning,,,"Los Angeles, CA",Hollywood/Beverly Hills
442,Unnamed Hotel @ Sunset Junction,4000 W Sunset Blvd ,Los Angeles,CA,90029,94.0,2023-06-01,Planning,34.0923712,-118.2806139,"Los Angeles, CA",Hollywood/Beverly Hills
443,Cheval Blanc Hotel,468 N Rodeo Dr ,Beverly Hills,CA,90210,115.0,2025-01-01,Planning,34.0706301,-118.4039464,"Los Angeles, CA",Hollywood/Beverly Hills
444,Adaptive Reuse - Boutique Hotel,5212 W Melrose Avenue ,Los Angeles,CA,90038,,,Pre-Planning,34.083445,-118.314324,"Los Angeles, CA",Hollywood/Beverly Hills
445,Hotel,55 N La Cienega Blvd,Beverly Hills,CA,90211,,,Pre-Planning,34.0666795,-118.3766306,"Los Angeles, CA",Hollywood/Beverly Hills
446,6220 Yucca Mixed Use Hotel/Residential,6220 W Yucca Avenue Argyle Avenue,Los Angeles,CA,90028,333.0,,Planning,,,"Los Angeles, CA",Hollywood/Beverly Hills
447,Hotel,"6360/6366/6364/6362 W Hollywood Blvd, 16",Hollywood,CA,90028,87.0,,Planning,34.1012648,-118.328692,"Los Angeles, CA",Hollywood/Beverly Hills
448,Ivar Gardens Hotel,6407-6411 Sunset Blvd N Cahuenga and Sunset Blvd,Los Angeles,CA,90028,275.0,,Planning,34.0759024,-118.3503522,"Los Angeles, CA",Hollywood/Beverly Hills
449,Selma Wilcox Hotel,6421 - 6429 1/2 W Selma Ave 1600 - 1604 N Wilcox Ave,Hollywood,CA,90028,114.0,2022-09-01,Planning,34.1001349,-118.330407,"Los Angeles, CA",Hollywood/Beverly Hills
450,Dream Hollywood Hotel Phase 2,6421 Selma Avenue Wilcox Avenue,Los Angeles,CA,90028,,,Planning,34.1001349,-118.330407,"Los Angeles, CA",Hollywood/Beverly Hills
451,Hotel,6445 Sunset Blvd,Los Angeles,CA,90028,175.0,,Planning,34.098331,-118.330145,"Los Angeles, CA",Hollywood/Beverly Hills
452,Robertson Lane Hotel/Mixed Use,645-681 N Robertson Blvd 648-654 La Peer Drive,West Hollywood,CA,90069,241.0,,Planning,34.0821002,-118.3856369,"Los Angeles, CA",Hollywood/Beverly Hills
453,Tommie Hollywood Hotel,6516-6526 W Selma Ave,Los Angeles,CA,90028,212.0,2021-04-01,Underway,,,"Los Angeles, CA",Hollywood/Beverly Hills
454,Crossroads Hollywood Parcel A - Hotel & Retail,6701-6671 W Sunset Blvd Selma Ave and McCadden Place,Los Angeles,CA,90028,308.0,,Planning,34.099704,-118.3375958,"Los Angeles, CA",Hollywood/Beverly Hills
455,679 S Harvard Blvd Hotel/Mixed Use,679-687 S Harvard Blvd Harvard Blvd and 7th Street,Los Angeles,CA,90005,110.0,,Planning,34.0605284,-118.3041992,"Los Angeles, CA",Hollywood/Beverly Hills
456,Hotel,6830 Sunset Blvd,Los Angeles,CA,90028,24.0,,Pre-Planning,34.0976945,-118.3398402,"Los Angeles, CA",Hollywood/Beverly Hills
457,Grand Spa Hotel,6th St and Commonwealth Ave 2951-2999 W Sixth Street,Los Angeles,CA,90020,99.0,,Planning,34.06393,-118.285971,"Los Angeles, CA",Hollywood/Beverly Hills
458,The Chaplin Hotel,7225 W Sunset Blvd Poinsettia Place,Los Angeles,CA,90046,93.0,,Planning,34.098137,-118.3475926,"Los Angeles, CA",Hollywood/Beverly Hills
459,Hotel,752 S Harvard Blvd,Los Angeles,CA,90005,16.0,,Pre-Planning,34.0582648,-118.3038878,"Los Angeles, CA",Hollywood/Beverly Hills
460,Bond Hotel and Residences,"7811 Santa Monica Blvd, 1114 N Orange Gr ",West Hollywood,CA,90046,166.0,,Planning,34.0910383,-118.3598459,"Los Angeles, CA",Hollywood/Beverly Hills
461,Sunset Hotel & Residences,8240 Sunset Blvd Harper Avenue,West Hollywood,CA,90046,80.0,,Planning,34.0971802,-118.3685199,"Los Angeles, CA",Hollywood/Beverly Hills
462,Pendry West Hollywood,8430 W Sunset Blvd,West Hollywood,CA,90069,149.0,2021-03-01,Underway,34.09505,-118.373215,"Los Angeles, CA",Hollywood/Beverly Hills
463,8445 Santa Monica Mixed Use,8445-8447 Santa Monica Blvd Olive Drive,West Hollywood,CA,90069,133.0,,Planning,34.091068,-118.374297,"Los Angeles, CA",Hollywood/Beverly Hills
464,Mixed Use Development,8850 Sunset Blvd btwn San Vicente Blvd &,West Hollywood,CA,90069,146.0,2024-02-01,Planning,34.090438,-118.3846834,"Los Angeles, CA",Hollywood/Beverly Hills
465,Sunset Jewelbox Hotel,"8950 Sunset Blvd, btwn Hilldale Ave &Ham",West Hollywood,CA,90069,165.0,,Planning,34.090244,-118.387139,"Los Angeles, CA",Hollywood/Beverly Hills
466,Hotel,9111 Wilshire Blvd ,Beverly Hills,CA,90210,154.0,,Planning,34.0671955,-118.3904146,"Los Angeles, CA",Hollywood/Beverly Hills
467,The Retreat at Benedict Canyon Boutique Hotel/SF PHASE 1,9704 Oak Pass Rd,Beverly Hills,CA,90210,59.0,2025-07-01,Planning,34.1190765,-118.4261549,"Los Angeles, CA",Hollywood/Beverly Hills
468,Boutique Hotel and Residential Estates,9712/9809/9800/9710/9712 W Oak Pass Road 9801/9809/9800/9815/9805/9811 W Wanda Pa,Los Angeles,CA,90210,108.0,,Pre-Planning,34.1200088,-118.4293648,"Los Angeles, CA",Hollywood/Beverly Hills
469,One Beverly Hills Mixed Use Development,9900 Wilshire Blvd,Beverly Hills,CA,90210,940.0,,Planning,34.0659326,-118.4148908,"Los Angeles, CA",Hollywood/Beverly Hills
470,Roadhouse & Junction Budget Hotel - Silverlake Area,Site not announced Silver Lake Area,Los Angeles,CA,90029,130.0,,Planning,34.0880507,-118.2965121,"Los Angeles, CA",Hollywood/Beverly Hills
471,Hollywood Park Hotel,1050 S Prairie Ave,Inglewood,CA,90301,300.0,2023-09-01,Planning,33.9505293,-118.343767,"Los Angeles, CA",LAX Airport/Inglewood
472,The Jeff Hotel,11469 Jefferson Blvd,Culver City,CA,90230,175.0,,Planning,33.989396,-118.3974039,"Los Angeles, CA",LAX Airport/Inglewood
473,11814 Aviation Blvd Hotel,11814-11824 Aviation Blvd,Inglewood,CA,90304,128.0,,Planning,33.9268726,-118.3781863,"Los Angeles, CA",LAX Airport/Inglewood
474,Hotel,5250-5300 W Century Blvd ,Westchester,CA,90045,356.0,,Pre-Planning,33.9450121,-118.3717396,"Los Angeles, CA",LAX Airport/Inglewood
475,Hyatt House LAX,5959 W Century Blvd,Los Angeles,CA,90045,168.0,2021-03-01,Underway,,,"Los Angeles, CA",LAX Airport/Inglewood
476,Hyatt Place LAX,5959 W Century Blvd,Los Angeles,CA,90045,228.0,2021-03-01,Underway,,,"Los Angeles, CA",LAX Airport/Inglewood
477,Hotel,5959 W Century Blvd,Westchester,CA,90045,401.0,,Planning,33.9462966,-118.3882255,"Los Angeles, CA",LAX Airport/Inglewood
478,Segundo House Hotel,707 Pacific Coast Highway /PCH,El Segundo,CA,90245,116.0,,Planning,33.9252441,-118.3966845,"Los Angeles, CA",LAX Airport/Inglewood
479,Project Homekey Motel,9250 Airport Blvd,Los Angeles,CA,90045,44.0,,Pre-Planning,33.9521306,-118.3853501,"Los Angeles, CA",LAX Airport/Inglewood
480,Artesia Live Hotel Mixed Use Phase 1,17600 Pioneer Blvd ,Artesia,CA,90701,165.0,,Planning,33.8708099,-118.0823351,"Los Angeles, CA",Long Beach/Lakewood
481,Historic Breakers Hotel,210 E Ocean Avenue,Long Beach,CA,90802,233.0,2022-07-01,Underway,33.766794,-118.190313,"Los Angeles, CA",Long Beach/Lakewood
482,Municipal Warehouse No. 1 - Conversion to Hotel,2500 Signal Street North Palo Verdes Street,SAN PEDRO,CA,90731,,,Pre-Planning,33.7215729,-118.2727722,"Los Angeles, CA",Long Beach/Lakewood
483,Pacific Avenue Hotel,544 S Pacific Ave,San Pedro,CA,90731,80.0,2023-01-01,Planning,33.7388774,-118.2876745,"Los Angeles, CA",Long Beach/Lakewood
484,Woodsprings Suites & Comfort Inn,8827 Artesia 8800 Palm St,Bellflower,CA,90706,191.0,,Bidding,33.87595,-118.144186,"Los Angeles, CA",Long Beach/Lakewood
485,Hotel/Retail,Atlantic Ave & E Spring St,Signal Hill,CA,90807,,,Pre-Planning,33.8115899,-118.1849609,"Los Angeles, CA",Long Beach/Lakewood
486,Doubletree by Hilton Hotel,300 W Palmdale Blvd,Palmdale,CA,93551,,2021-07-01,Underway,34.5810767,-118.1357662,"Los Angeles, CA",Los Angeles North
487,Residence Inn Lancaster Palmdale,857 W Lancaster Blvd,Lancaster,CA,93534,107.0,2022-08-31,Underway,34.697504,-118.146139,"Los Angeles, CA",Los Angeles North
488,Residence Inn Santa Clarita Valencia,27505 Wayne Mills Pl,Santa Clarita,CA,91355,105.0,2021-04-28,Underway,,,"Los Angeles, CA",Los Angeles Northwest/I5
489,Springhill Suites Santa Clarita Valencia,27505 Wayne Mills Pl,Valencia,CA,91355,91.0,2021-03-01,Underway,,,"Los Angeles, CA",Los Angeles Northwest/I5
490,Homewood Suites by Hilton Santa Clarita Valencia,28700 Newhall Ranch Rd,Santa Clarita,CA,91355,107.0,2021-05-01,Underway,,,"Los Angeles, CA",Los Angeles Northwest/I5
491,Hampton Inn Suites Santa Clarita Valencia,28700 Newhall Ranch Rd,Valencia,CA,91355,78.0,2021-05-01,Underway,,,"Los Angeles, CA",Los Angeles Northwest/I5
492,Hampton Inn Hotel,Newhall Ranch Rd,Santa Clarita,CA,91355,78.0,,Bidding,34.4391918,-118.5688178,"Los Angeles, CA",Los Angeles Northwest/I5
493,Sand Canyon Resort,Sand Canyon Rd & Robinson Ranch Rd,Santa Clarita,CA,91387,241.0,,Planning,34.4117766,-118.4201169,"Los Angeles, CA",Los Angeles Northwest/I5
494,Hampton Inn & Suites by Hilton Porter Ranch Los Angeles,SWQ of Porter Ranch Dr & Rinaldi St,Los Angeles,CA,91326,100.0,2021-07-30,Final Planning,,,"Los Angeles, CA",Los Angeles Northwest/I5
495,Tru by Hilton Inglewood Los Angeles,11111 S Prairie Avenue ,Inglewood,CA,90303,120.0,2022-05-13,Planning,33.9344196,-118.3441295,"Los Angeles, CA",Los Angeles South/Torrance
496,Jefferson on Avalon Hotel,21126 Avalon Blvd ,Carson,CA,90746,150.0,,Planning,33.8376865,-118.263169,"Los Angeles, CA",Los Angeles South/Torrance
497,Hotel Addition & Renovations,3960 Pacific Coast Hwy ,Torrance,CA,90505,55.0,,Pre-Planning,33.8064901,-118.3554859,"Los Angeles, CA",Los Angeles South/Torrance
498,Home2 by Hilton Hotel,888 E Dominguez St,Carson,CA,90746,118.0,,Planning,33.8397726,-118.260748,"Los Angeles, CA",Los Angeles South/Torrance
499,Hampton Inn/Home2 Suites by Hilton Hotel,15223/15229/15239 Hawthorne Blvd,Lawndale,CA,90260,195.0,,Planning,33.8926478,-118.3534086,"Los Angeles, CA",Manhattan/Hermosa Beach
500,Palos Verdes Inn Remodel @ Legado Redondo,1700 S Pacific Coast Hwy,Redondo Beach,CA,90277,110.0,,Planning,33.818645,-118.383324,"Los Angeles, CA",Manhattan/Hermosa Beach
501,Hotel,600 N Sepulveda Blvd,Manhattan Beach,CA,90266,162.0,,Pre-Planning,33.8828954,-118.3955391,"Los Angeles, CA",Manhattan/Hermosa Beach
502,South Bay Galleria Hotel,Hawthorne Blvd & Artesia Blvd 1815 Hawthorne Blvd,Redondo Beach,CA,90278,150.0,,Planning,33.8714411,-118.3549923,"Los Angeles, CA",Manhattan/Hermosa Beach
503,TownePlace Suites Los Angeles Pasadena Monrovia,116 W Huntington Dr,Monrovia,CA,91016,109.0,2022-08-01,Planning,34.1402197,-118.0011843,"Los Angeles, CA",Pasadena/Arcadia
504,Hawthorne Suites by Wyndham Hotel Phase 1,1230 Huntington Dr,Duarte,CA,91010,72.0,,Planning,34.1391948,-117.9785781,"Los Angeles, CA",Pasadena/Arcadia
505,Hawthorne Suites by Wyndham Hotel Phase 2,1230 Huntington Dr,Duarte,CA,91010,106.0,,Planning,34.1391948,-117.9785781,"Los Angeles, CA",Pasadena/Arcadia
506,Hotel Indigo at Huntington Center,125 W. HUNTINGTON DRIVE & 175 COLORADO P,Arcadia,CA,91007,165.0,,Planning,34.1410047,-118.0378202,"Los Angeles, CA",Pasadena/Arcadia
507,Le Meridien Hotel,130 W Huntington Drive,Arcadia,CA,91007,227.0,2021-05-01,Underway,34.13958,-118.037704,"Los Angeles, CA",Pasadena/Arcadia
508,Colorado Hill Hotel/Parking Garage - North Parcel,1336-1347-1355 E Colorado Blvd 39 N Hill Avenue,Pasadena,CA,91106,375.0,,Planning,34.1456011,-118.1225843,"Los Angeles, CA",Pasadena/Arcadia
509,New Hope Village Hotel,1500 E Duarte Rd,Duarte,CA,91010,150.0,2021-11-01,Underway,,,"Los Angeles, CA",Pasadena/Arcadia
510,YWCA Adaptive Re -Use,78 N Marengo Ave,Pasadena,CA,91101,180.0,,Pre-Planning,34.1472682,-118.1454116,"Los Angeles, CA",Pasadena/Arcadia
511,Ocean Avenue Hotel Building,"101 Santa Monica Blvd, 1327-1337 Ocean A",Santa Monica,CA,90401,120.0,2025-01-01,Planning,34.0144074,-118.4979715,"Los Angeles, CA",Santa Monica
512,Venice Place Boutique Hotel/Mixed Use,1021-1033 Abbot Kinney Boulevard,Venice,CA,90291,78.0,2025-06-01,Planning,33.9919764,-118.4708582,"Los Angeles, CA",Santa Monica
513,Miramar Santa Monica Hotel Redevelopment,1133 Ocean Avenue 101 Wilshire Blvd,Santa Monica,CA,90403,372.0,,Planning,34.017845,-118.5014962,"Los Angeles, CA",Santa Monica
514,Georgian Hotel,1415 Ocean Ave,Santa Monica,CA,90401,,,Pre-Planning,34.0138683,-118.4971899,"Los Angeles, CA",Santa Monica
515,Hotel,1938 S Westwood Blvd,Los Angeles,CA,90025,30.0,,Pre-Planning,34.0476633,-118.4347915,"Los Angeles, CA",Santa Monica
516,Fairmont Century Plaza Los Angeles,2025 Avenue of the Stars,Los Angeles,CA,90067,400.0,2021-03-01,Underway,,,"Los Angeles, CA",Santa Monica
517,Apartments - Conversion to Hotel,417 S Ocean Front Walk ,Venice,CA,90291,30.0,,Pre-Planning,33.9937288,-118.4793063,"Los Angeles, CA",Santa Monica
518,Courtyard Los Angeles Marina Del Rey,4360 Via Marina,Marina Del Rey,CA,90292,159.0,2021-02-16,Underway,,,"Los Angeles, CA",Santa Monica
519,Roadhouse & Junction Hotel - Venice,Site not announced ,Venice,CA,90291,165.0,,Pre-Planning,33.9962144,-118.4688776,"Los Angeles, CA",Santa Monica
520,Seaside Resort Hotel Phase I,#2 McClure Way,Seaside,CA,93955,72.0,,Planning,36.6281464,-121.8147692,"Monterey Bay, CA","Monterey Bay, CA"
521,"Hampton Inn and Suites (Marina, CA)",102 Reservation Rd,Marina,CA,93933,90.0,,Final Planning,36.6957392,-121.8027442,"Monterey Bay, CA","Monterey Bay, CA"
522,American Tin Cannery Hotel & Commercial,109 -125 Ocean View Rd,Pacific Grove,CA,93950,459.0,,Planning,36.6175339,-121.9055331,"Monterey Bay, CA","Monterey Bay, CA"
523,Hotel Durrell,157 Grand Ave,Pacific Grove,CA,93950,116.0,,Planning,36.6218458,-121.9165876,"Monterey Bay, CA","Monterey Bay, CA"
524,Hotel,195 Kern Street,Salinas,CA,93901,86.0,,Planning,36.6818976,-121.6414427,"Monterey Bay, CA","Monterey Bay, CA"
525,Hotel,2101 N Fremont St,Monterey,CA,93940,42.0,,Planning,36.596358,-121.8625228,"Monterey Bay, CA","Monterey Bay, CA"
526,Home2 Suites Hotel,225 10th St,Marina,CA,93933,94.0,,Planning,36.6645859,-121.8061077,"Monterey Bay, CA","Monterey Bay, CA"
527,MainGate Development,Highway 1 near Light,Seaside,CA,93955,993.0,,Pre-Planning,37.1855837,-122.3963887,"Monterey Bay, CA","Monterey Bay, CA"
528,Cambria Suites Hotel,Lightfighter Drive & 2nd Ave,Seaside,CA,93955,138.0,,Planning,36.6478028,-121.8095579,"Monterey Bay, CA","Monterey Bay, CA"
529,Fairfield Inn & Suites Hotel,Site to be announced,Greenfield,CA,93927,100.0,,Pre-Planning,36.3207998,-121.2438138,"Monterey Bay, CA","Monterey Bay, CA"
530,Ph 2 Hotel - West End South of Tioga Development,"Tioga Ave to the NE,California",Sand City,CA,93955,216.0,,Planning,36.6171819,-121.8482855,"Monterey Bay, CA","Monterey Bay, CA"
531,RFP/AE : Hotel and Restaurant Development, ,Oakland,CA,94577,11.0,,Unconfirmed,37.7191,-122.1606,"Oakland, CA",Central District/OAK Airport
532,Homewood Suites by Hilton Oakland Airport Alameda,1074 Harbor Bay Pkwy,Alameda,CA,94502,85.0,2024-03-29,Final Planning,,,"Oakland, CA",Central District/OAK Airport
533,Hilton Garden Inn Oakland Airport Alameda,1074 Harbor Bay Pkwy,Alameda,CA,94502,120.0,2024-03-29,Final Planning,,,"Oakland, CA",Central District/OAK Airport
534,1100 Clay Street Hotel/Office/Apartments - Phase 2,1100 Clay St,Oakland,CA,94607,300.0,,Planning,37.8033278,-122.274771,"Oakland, CA",Central District/OAK Airport
535,Cambria hotel & suites Oakland,111 Hegenberger Rd,Oakland,CA,94621,160.0,2021-12-28,Unconfirmed,,,"Oakland, CA",Central District/OAK Airport
536,Residence Inn Oakland Downtown,1431 Jefferson St,Oakland,CA,94612,143.0,2021-06-04,Underway,37.80599,-122.274692,"Oakland, CA",Central District/OAK Airport
537,AC Hotels By Marriott Oakland Downtown,1431 Jefferson St,Oakland,CA,94612,133.0,2021-06-04,Underway,37.80599,-122.274692,"Oakland, CA",Central District/OAK Airport
538,Holiday Inn Express Alameda,1825 Park St ,Alameda,CA,94501,96.0,,Unconfirmed,37.7697665,-122.2384897,"Oakland, CA",Central District/OAK Airport
539,The Uptown,1911 Telegraph Ave,Oakland,CA,94612,115.0,,Abandoned,,,"Oakland, CA",Central District/OAK Airport
540,Moxy Oakland Downtown,2225 Telegraph Ave ,Oakland,CA,94612,173.0,2021-07-01,Underway,37.812082,-122.26901,"Oakland, CA",Central District/OAK Airport
541,Harbor Bay Hotel - Alameda CA,2350 Harbor Bay Pkwy ,Alameda,CA,94501,100.0,,Unconfirmed,37.730869,-122.250158,"Oakland, CA",Central District/OAK Airport
542,Independent Hotel Oakland,2401 Broadway,Oakland,CA,94612,168.0,2021-10-01,Underway,,,"Oakland, CA",Central District/OAK Airport
543,Jack London Square Hotel Parcel F3,25 Alice St near Broadway & Embarcadero West,Oakland,CA,94607,144.0,,Pre-Planning,37.7953981,-122.276699,"Oakland, CA",Central District/OAK Airport
544,Residence Inn Oakland Alameda,2900 Harbor Bay Pkwy,Alameda,CA,94502,172.0,2023-01-01,Planning,37.7355492,-122.2549123,"Oakland, CA",Central District/OAK Airport
545,Monarch Bay Hyatt Hotel Phase 1,60 Monarch Bay Drive ,San Leandro,CA,94577,220.0,,Unconfirmed,37.6981438,-122.1891054,"Oakland, CA",Central District/OAK Airport
546,Fairfield Inn & Suites Oakland Alameda,Harbor Bay Pkwy & N Loop Rd,Alameda,CA,94502,99.0,,Final Planning,,,"Oakland, CA",Central District/OAK Airport
547,Alameda Point Hotel & Retail/Restaurant Parcel 4,Ralph Appezzato Pkwy Ferry Point Way,Alameda,CA,94501,100.0,,Final Planning,37.7799027,-122.2841453,"Oakland, CA",Central District/OAK Airport
548,Hyatt House Livermore,1000 Airway Blvd ,Livermore,CA,94551,122.0,2023-01-01,Final Planning,,,"Oakland, CA",Dublin/San Ramon
549,Hyatt Place Livermore,1000 Airway Blvd ,Livermore,CA,94550,119.0,2022-09-01,Final Planning,37.7030239,-121.8171009,"Oakland, CA",Dublin/San Ramon
550,Marriott Residence Inn & Homewood Suites,2000 Freisman Road I-580 and El Charro Road,Pleasanton,CA,94588,216.0,2021-03-01,Unconfirmed,37.701117,-121.849459,"Oakland, CA",Dublin/San Ramon
551,Hampton Inn by Hilton San Ramon,2231 Omega Rd,San Ramon,CA,94583,96.0,2023-06-05,Unconfirmed,37.780487,-121.980236,"Oakland, CA",Dublin/San Ramon
552,Springhill Suites Pleasanton,7280 Johnson Dr,Pleasanton,CA,94588,112.0,2022-06-01,Final Planning,,,"Oakland, CA",Dublin/San Ramon
553,TownePlace Suites Pleasanton,7280 Johnson Dr,Pleasanton,CA,94588,110.0,2022-06-01,Final Planning,,,"Oakland, CA",Dublin/San Ramon
554,Cambria hotel & suites Dublin,7950 Dublin Blvd,Dublin,CA,94568,138.0,2022-08-01,Final Planning,37.7011469,-121.9347783,"Oakland, CA",Dublin/San Ramon
555,Westin Dublin Pleasanton,Campus Drive & Altamirano Road,Dublin,CA,94568,198.0,2022-01-01,Planning,37.699746,-121.928199,"Oakland, CA",Dublin/San Ramon
556,Element Hotel - Dublin CA,Dublin Blvd,Dublin,CA,94568,129.0,,Planning,37.7047798,-121.9177336,"Oakland, CA",Dublin/San Ramon
557,Tru Hotel - Dublin CA,Dublin Blvd,Dublin,CA,94568,120.0,,Planning,37.7047798,-121.9177336,"Oakland, CA",Dublin/San Ramon
558,Livermore Valley Wine Country Inn REBID,Hansen and Arroyo Roads,Livermore,CA,94550,30.0,2021-12-01,Underway,37.6474396,-121.7681467,"Oakland, CA",Dublin/San Ramon
559,Staybridge Suites Livermore,Kitty Hawk Rd & Armstrong St,Livermore,CA,94551,116.0,2021-07-15,Abandoned,,,"Oakland, CA",Dublin/San Ramon
560,Four Story Hotel & New Frontage Street Improvements,SE corner of Railroad Ave and South Livermore Avenue,Livermore,CA,94550,133.0,,Unconfirmed,37.683408,-121.769439,"Oakland, CA",Dublin/San Ramon
561,Hilton Garden Inn Dublin,SWQ of Dublin Blvd & Keegan Rd,Dublin,CA,94568,140.0,,Pre-Planning,,,"Oakland, CA",Dublin/San Ramon
562,Tru by Hilton El Cerrito,1718 Eastshore Boulevard,El Cerrito,CA,94530,84.0,2022-01-01,Final Planning,,,"Oakland, CA",Emeryville/Berkeley
563,Hilton Garden Inn,1800 Powell St,Emeryville,CA,94608,23.0,,Planning,37.838001,-122.297369,"Oakland, CA",Emeryville/Berkeley
564,DoubleTree by Hilton Berkeley Marina,200 Marina Boulevard,Berkeley,CA,94710,,,Bidding,37.868074,-122.312816,"Oakland, CA",Emeryville/Berkeley
565,Home 2 Suites by Hilton Hotel,2121 Meeker Ave,Richmond,CA,94804,102.0,,Planning,37.9197547,-122.348964,"Oakland, CA",Emeryville/Berkeley
566,Residence Inn Berkeley Place Hotel,2129 Shattuck Avenue,Berkeley,CA,94704,335.0,2021-03-15,Underway,37.870742,-122.268165,"Oakland, CA",Emeryville/Berkeley
567,Residence Inn Hilltop Hotel,2200 Hilltop Mall Rd,Richmond,CA,94806,104.0,,Planning,37.9808772,-122.3295291,"Oakland, CA",Emeryville/Berkeley
568,Hampton Inn | Home2 Suites Berkeley,2801 Adeline Street,Berkeley,CA,94703,215.0,2023-06-01,Planning,,,"Oakland, CA",Emeryville/Berkeley
569,La Quinta Hotel (San Pablo CA),3440 SAN PABLO DAM RD ,San Pablo,CA,94803,98.0,,Unconfirmed,37.962491,-122.32228,"Oakland, CA",Emeryville/Berkeley
570,Residence Inn Berkeley,Shattuck Ave & Center St,Berkeley,CA,94709,336.0,2021-05-03,Underway,,,"Oakland, CA",Emeryville/Berkeley
571,Home2 Suites by Hilton Hayward,22005 Skywest Dr,Hayward,CA,94541,130.0,,Deferred,,,"Oakland, CA",Hayward
572,Holiday Inn Express,25640 Mission Blvd,Hayward,CA,94544,89.0,2021-04-01,Underway,37.654918,-122.0697,"Oakland, CA",Hayward
573,Springhill Suites Oakland Hayward,Mission Blvd & Devon Dr,Hayward,CA,94544,100.0,2021-01-22,Abandoned,,,"Oakland, CA",Hayward
574,Hyatt Place Hayward Airport,Skywest Drive,Hayward,CA,94541,110.0,,Unconfirmed,,,"Oakland, CA",Hayward
575,Concord Hampton Inn by Hilton Hotel,1880 Market St,Concord,CA,94520,86.0,,Planning,37.9700879,-122.046067,"Oakland, CA",Walnut Creek/Concord
576,Cambria hotels & suites Pleasant Hill,3195 North Main Street,Pleasant Hill,CA,94597,155.0,,Planning,37.9317671,-122.060936,"Oakland, CA",Walnut Creek/Concord
577,Hilton Garden Inn Walnut Creek,470 N Lawrence Way ,Walnut Creek,CA,94596,124.0,2023-01-01,Planning,37.9124362,-122.0642706,"Oakland, CA",Walnut Creek/Concord
578,Hyatt Place Hotel,699 Ygnacio Valley Road ,Walnut Creek,CA,94596,105.0,,Unconfirmed,37.9060833,-122.0592528,"Oakland, CA",Walnut Creek/Concord
579,Courtyard Antioch Pittsburg,Railroad Ave & California Ave,Pittsburg,CA,94565,125.0,2022-06-01,Final Planning,,,"Oakland, CA",Walnut Creek/Concord
580,Hotel Development Phase 1-Holiday Inn Express and Suites,74-755 & 74-777 Technology Dr,Palm Desert,CA,92211,96.0,,Planning,33.78405,-116.357395,"Palm Desert, CA",Indio / Coachella
581,Hotel and Restaurant,75-144 Gerald Ford Dr,Palm Desert,CA,92211,88.0,,Planning,33.7820273,-116.3526647,"Palm Desert, CA",Indio / Coachella
582,Honokea Surf Village,Avenue 42,Indio,CA,92203,1657.0,,Planning,33.7439389,-116.2514978,"Palm Desert, CA",Indio / Coachella
583,Madison Pointe Hotel,Madison St & CA-111,Indio,CA,92201,110.0,,Planning,33.7073,-116.25139,"Palm Desert, CA",Indio / Coachella
584,Coachella Vineyard Estates Ph 2 Townhouses-Hotel,NEC Vista Del Norte and Tyler,Coachella,CA,92236,300.0,,Planning,33.714971,-116.1641522,"Palm Desert, CA",Indio / Coachella
585,Two Hotels and Two Restaurants,"NORTH SIDE OF VISTA DEL NORTE ,EAST OF D",Coachella,CA,92203,153.0,,Planning,33.7166914,-116.1721518,"Palm Desert, CA",Indio / Coachella
586,Coachella Travel Center Hotel,south side of Avenue 50 between the Whit,Coachella,CA,92236,116.0,,Planning,33.6854738,-116.2155149,"Palm Desert, CA",Indio / Coachella
587,Porcupine Creek Retreat,42765 Dunes View Rd,Rancho Mirage,CA,92270,50.0,,Planning,33.7345088,-116.4241051,"Palm Desert, CA",Palm Desert / La Quinta
588,Sands Hotel Renovation,75188 Highway 111,Indian Wells,CA,92210,48.0,,Pre-Planning,,,"Palm Desert, CA",Palm Desert / La Quinta
589,The Centre at La Quinta Mixed-Use Development,Adams Street & Auto Center Drive,La Quinta,CA,92253,125.0,,Planning,33.699297,-116.2861829,"Palm Desert, CA",Palm Desert / La Quinta
590,The Centre at La Quinta Mixed-Use Development,Adams Street & Auto Center Drive,La Quinta,CA,92253,125.0,,Planning,33.699297,-116.2861829,"Palm Desert, CA",Palm Desert / La Quinta
591,Montage La Quinta Resort,Ave 52 & SilverRock Way,La Quinta,CA,92253,134.0,2022-02-01,Underway,33.674333,-116.2839402,"Palm Desert, CA",Palm Desert / La Quinta
592,Indian Wells Hospitality Project,Hwy 111 and Miles Ave,Indian Wells,CA,92210,226.0,,Planning,33.7239515,-116.3044989,"Palm Desert, CA",Palm Desert / La Quinta
593,"Rancho Cove Hotel,Commercial Retail Space,Residential Condos",Hwy 111 and One Mirage Plaza,Rancho Mirage,CA,92270,135.0,,Planning,33.77381,-116.448002,"Palm Desert, CA",Palm Desert / La Quinta
594,The Residence at Rancho Mirage Country Club Phase 1,SEC Frank Sinatra Dr and Bob Hope Dr,Rancho Mirage,CA,92270,72.0,,Planning,33.7724345,-116.4076704,"Palm Desert, CA",Palm Desert / La Quinta
595,DSRT Surf Desert Waves Ventures Surf Resort,west side of Desert Willow Drive,Palm Desert,CA,92260,438.0,,Planning,33.766789,-116.365359,"Palm Desert, CA",Palm Desert / La Quinta
596,Bel-Air Greens Golf Course Redevelopment,1001 S El Cielo Road,Palm Springs,CA,92264,354.0,,Planning,33.8082157,-116.511556,"Palm Desert, CA",Palm Springs
597,Starlite Lodge Motel Remodel and Addition,13105 Palm Drive,Desert Hot Springs,CA,92240,13.0,,Planning,,,"Palm Desert, CA",Palm Springs
598,Hotel Remodel and Addition,1466 North Palm Canyon Dr,Palm Springs,CA,92262,29.0,,Planning,,,"Palm Desert, CA",Palm Springs
599,Skylark Hotel Remodel to Tangerine Hotel,1466 NORTH PALM CANYON DRIVE,Palm Springs,CA,92262,,,Planning,33.8420749,-116.5462553,"Palm Desert, CA",Palm Springs
600,Riviera Hotel Bldg 4 and 5 Timeshare Conversion,1600 NORTH INDIAN CANYON DRIVE,Palm Springs,CA,92262,235.0,,Planning,33.845541,-116.545521,"Palm Desert, CA",Palm Springs
601,Hotel Renovation,1900 NORTH PALM CANYON DR,Palm Springs,CA,92262,,,Planning,33.846607,-116.546799,"Palm Desert, CA",Palm Springs
602,Hotel Adaptive Reuse and New Buildings,222 SOUTH CAHUILLA ROAD,Palm Springs,CA,92262,59.0,,Planning,33.819757,-116.5488192,"Palm Desert, CA",Palm Springs
603,The Cole Hotel Remodel,2323 N Palm Canyon Blvd,Palm Springs,CA,92262,,,Planning,33.850502,-116.550056,"Palm Desert, CA",Palm Springs
604,Bode Palms Springs Hotel,244-282 S Indian Canyon Drive,Palm Springs,CA,92262,30.0,2021-08-01,Underway,33.8204599,-116.5455532,"Palm Desert, CA",Palm Springs
605,Hyatt Andaz Hotel,400 N. Palm Canyon Drive,Palm Springs,CA,92262,150.0,2021-11-01,Underway,,,"Palm Desert, CA",Palm Springs
606,Parker Palm Springs -Parker Hall,4200 EAST PALM CANYON DRIVE,Palm Springs,CA,92264,32.0,,Planning,33.7952328,-116.4998313,"Palm Desert, CA",Palm Springs
607,Villa D? Luxe in the Desert Motel-Spa,5th St & Mesquite Ave,Desert Hot Springs,CA,92240,6.0,,Planning,33.9661176,-116.4970206,"Palm Desert, CA",Palm Springs
608,Alcazar Hotel Expansion,622 N. Palm Canyon Drive,Palm Springs,CA,92262,12.0,,Planning,33.83222,-116.546714,"Palm Desert, CA",Palm Springs
609,The Dream Hotel Palm Springs,Calle Alvarado and Armado Rd,Palm Springs,CA,92262,209.0,2023-01-01,Underway,33.826805,-116.539511,"Palm Desert, CA",Palm Springs
610,Hilton Garden Inn Hotel,500 Leisure Ln,Sacramento,CA,95815,121.0,,Planning,38.5986758,-121.4548412,"Sacramento, CA",Cal Expo
611,Residence Inn,610 Leisure Ln ,Sacramento,CA,95815,179.0,2022-02-28,Final Planning,38.5992375,-121.4556349,"Sacramento, CA",Cal Expo
612,Embassy Suites Riverfront,100 Capitol Mall,Sacramento,CA,95814,,,Planning,38.5795462,-121.5068896,"Sacramento, CA",Downtown/Convention Center
613,"Hotel Sacramento, Curio Collection by Hilton",1006 4th St,Sacramento,CA,95814,100.0,2021-02-10,Underway,,,"Sacramento, CA",Downtown/Convention Center
614,Canopy by Hilton Hotel / Apartments,1116 9th ST,Sacramento,CA,95814,325.0,2022-12-01,Planning,38.578667,-121.4965176,"Sacramento, CA",Downtown/Convention Center
615,Hyatt Centric Downtown Sacramento,1122 7th St.,Sacramento,CA,95814,172.0,2021-06-01,Underway,38.579611,-121.498296,"Sacramento, CA",Downtown/Convention Center
616,Home2 Suites by Hilton Sacramento,1865 65th St,Sacramento,CA,95819,103.0,2021-06-14,Underway,38.55195,-121.427685,"Sacramento, CA",Downtown/Convention Center
617,Element Hotel / Coca Cola Building,2200 Stockton Blvd ,Sacramento,CA,95817,151.0,,Planning,38.5563685,-121.4598789,"Sacramento, CA",Downtown/Convention Center
618,Hyatt House Sacramento Midtown,2719 K St ,Sacramento,CA,95816,133.0,2021-11-01,Underway,38.5731872,-121.4701296,"Sacramento, CA",Downtown/Convention Center
619,601 Capital Mall Residential/Retail Mixed Use,601 Capitol Mall ,Sacramento,CA,95814,162.0,,Planning,,,"Sacramento, CA",Downtown/Convention Center
620,AC Marriott Hotel,730 I St,Sacramento,CA,95814,179.0,,Planning,38.581978,-121.4962709,"Sacramento, CA",Downtown/Convention Center
