,Title,Address,City,State,PostalCode,Units,Open Date,Phase,Latitude,Longitude,Market,Submarket
0,Unnamed Hotel @ Riverfront on the Anacostia,100 Potomac Ave,Washington,DC,20003,325,8/21/2022,Final Planning,38.8696902,-77.0109269,Washington,Washington DC CBD 
1,Unnamed Hotel @ The Spire,500 Avenue of the Arts,Dallas,TX,75201,500,,Planning,32.7876099,-96.7935937,Dallas,Dallas CBD/Market Center 
2,Atlantic 3350,3350 E Atlantic Blvd,Pompano Beach,FL,33062-5717,110,,Planning,26.2316887,-80.0912013,Fort Lauderdale,Coral Springs/Pompano Beach 
3,Home2 Suites by Hilton Dulles Airport,22045 Dulles Plz,Dulles,VA,20166,124,9/2/2026,Planning,38.9770534,-77.4253335,Washington,Dulles Airport Area 
4,RIVAL,140 Allen St,New York,NY,10002-3005,98,6/15/2021,In Construction,40.7201108,-73.9895328,New York,Village/Soho/Tribeca 
5,Woodspring Suites Horsham,1020 Easton Rd,Horsham,PA,19044,122,4/30/2024,Planning,40.197567,-75.138003,Philadelphia,Philadelphia North Suburbs 
6,Unknown Name,2 Petaluma Blvd N,Petaluma,CA,94952-3002,65,3/26/2023,Final Planning,38.233092,-122.638937,California North,Santa Rosa/Sonoma 
7,Courtyard Meridian,607 22nd Ave,Meridian,MS,39301-5022,131,8/18/2021,Deferred,32.3646296,-88.7008314,Mississippi,Meridian/East Central Area 
8,Comfort Inn & Suites Richmond Airport East,580 Trampton Rd,Sandston,VA,23150,75,12/29/2021,In Construction,37.5255112,-77.3253677,Richmond/Petersburg,Richmond CBD/Airport 
9,Hotel @ Napa Pipe,1025 Kaiser Rd,Napa,CA,94558,150,,Planning,38.2537581,-122.2819264,California North,Napa Valley 
10,Flagstone Island Gardens Resort,950 MacArthur Cswy,Miami,FL,33132,792,,Planning,25.7861654,-80.1778253,Miami,Miami CBD/North 
11,Hampton Inn Edenton,115 Hampton Dr,Edenton,NC,27932-8815,18,,In Construction,36.0785309,-76.6165078,North Carolina East,Coastal Carolina NC 
12,Country Inn & Suites Cumming,915 Buford Rd,Cumming,GA,30041-2717,77,7/31/2021,In Construction,34.1782721,-84.1325304,Atlanta,Alpharetta/North 
13,Cambria Hotels South Windsor-Manchester,1000 Long Leaf Ln,South Windsor,CT,6074,110,9/1/2021,In Construction,41.8106581,-72.5615463,Hartford,Hartford North/Windsor Locks 
14,Homewood Suites by Hilton Pittsburgh/Cranberry,10015 Pendleton Way,Cranberry Township,PA,16066-6900,107,,Deferred,40.6814373,-80.0800864,Pittsburgh,Pittsburgh North Area 
15,MainStay Suites Splendora,13833 Highway 59,Splendora,TX,77372,38,12/31/2022,Planning,30.2440853,-95.1559157,Houston,Houston North/Woodlands 
16,Carraway Village hotel,Eubanks Road & Hwy 86,Chapel Hill,NC,27516,120,,Planning,35.9699412,-79.0670646,Raleigh/Durham/Chapel Hill,Durham/Chapel Hill 
17,Unnamed Hotel Boren Avenue,1916 Boren Ave,Seattle,WA,98101,301,7/31/2022,Planning,47.617467,-122.333061,Seattle,Seattle CBD 
18,Residence Inn By Marriott Longview,3661 Estes Pky,Longview,TX,75603-1703,100,3/23/2023,Final Planning,32.44001,-94.7176,Texas East,Tyler & Longview 
19,Desert Diamond West Valley Resort & Casino,Northern Ave & 91st Ave,Glendale,AZ,85305,400,1/31/2023,Planning,33.5500406,-112.257732,Phoenix,Phoenix West 
20,Hilton Buena Park,6940 Beach Blvd,Buena Park,CA,90621-3484,175,,Deferred,33.859306,-117.9956522,Orange County,Orange County Northwest/Fullerton 
21,Gaylord Palms Resort Convention Center,6000 W Osceola Pky,Kissimmee,FL,34746-4414,303,,In Construction,28.3430105,-81.5258964,Orlando,Kissimmee East 
22,Dream Hotel Palm Springs,355 N Avenida Caballeros,Palm Springs,CA,92262-6173,171,1/31/2022,In Construction,33.8274934,-116.5388503,Inland Empire,Palm Springs 
23,Gaylord Resort & Convention Center San Diego,520 Marina Pky,Chula Vista,CA,91910-4054,1600,10/30/2024,Final Planning,32.628484,-117.10335,San Diego,San Diego South/East 
24,Fairfield Inn & Suites Riverside Perris,19310 Harvill Ave,Perris,CA,92570-4901,104,12/15/2021,In Construction,33.8404626,-117.2529773,Inland Empire,Riverside Surrounding 
25,City Club Hotel,55 W 44th St,New York,NY,10036-6609,66,,Planning,40.7558942,-73.9821902,New York,Midtown West/Times Square NY 
26,Residence Inn Orlando Convention Center,100 Plaza Luz Row,Orlando,FL,32819,146,9/14/2023,Final Planning,28.436258,-81.470243,Orlando,Orlando International Drive 
27,La Quinta Inns & Suites Bastrop,521 Agnes St,Bastrop,TX,78602,87,5/31/2023,Planning,30.105738,-97.3375846,Austin,San Marcos/Austin Surrounding 
28,TownePlace Suites Houston I-10 East,10507 East Fwy,Houston,TX,77029,98,6/21/2021,In Construction,29.7753758,-95.2428324,Houston,Houston East/Baytown 
29,Home2 Suites by Hilton Charleston Riverview,317 Savannah Hwy,Charleston,SC,29407,107,,Planning,32.7809327,-79.9657195,Charleston,Charleston/West Ashley 
30,Fairfield Inn & Suites Dalton,786 College Dr,Dalton,GA,30720,90,7/3/2021,In Construction,34.7659601,-85.0043838,Georgia North,Georgia Northwest 
31,Le Meridien Anaheim Garden Grove,12262 Harbor Blvd,Garden Grove,CA,92840-4006,402,11/6/2023,Final Planning,33.7848229,-117.9141451,Orange County,Disneyland 
32,Hyatt Place Houston Medical Center,1801 Old Spanish Trl,Houston,TX,77054-2001,159,2/15/2023,In Construction,29.6963031,-95.4006664,Houston,Houston Medical Ctr/Reliant Stadium 
33,Fairfield Inn & Suites Fresno North/Shaw Avenue,1710 W Shaw Ave,Fresno,CA,93711-3416,87,7/14/2021,In Construction,36.8093272,-119.8246954,California South/Central,Fresno 
34,element Valley Forge,110 Goddard Blvd,King Of Prussia,PA,19406,120,6/8/2021,In Construction,40.0896181,-75.408441,Philadelphia,Philadelphia West Suburbs 
35,Unnamed SLO Airport Hotel # 1,950 Aero Dr,San Luis Obispo,CA,93401-8709,100,,Planning,35.241211,-120.639148,California Central Coast,San Luis Obispo/Paso Robles 
36,Ho-Chunk Casino & Hotel Beloit,Willowbrooke Road & Colley Rd,Beloit,WI,53511,300,1/5/2023,Planning,42.5051535,-88.9939418,Wisconsin South,Janesville/Racine 
37,Courtyard Orlando Convention Center,100 Plaza Luz Row,Orlando,FL,32819,150,11/13/2023,Final Planning,28.4355697,-81.4697818,Orlando,Orlando International Drive 
38,Great Wolf Lodge San Francisco/Manteca,2600 W Yosemite Ave,Manteca,CA,95337,500,6/15/2021,In Construction,37.7854411,-121.2637947,California North Central,Stockton/Modesto 
39,Fairfield Inn & Suites Manchester Merrimack,10 Premium Outlets Blvd,Merrimack,NH,03054-4766,111,12/7/2023,Planning,42.8253965,-71.5096308,New Hampshire,Portsmouth/Manchester 
40,The Wildacres Resort @ Belleayre,64 Galli Curci Rd,Highmount,NY,12441,208,,Planning,42.1410642,-74.5018155,Lower Hudson Valley,Hudson Valley Area NY 
41,Casa Cipriani New York,10 South St,New York,NY,10004-1921,47,5/31/2021,In Construction,40.7010704,-74.0117896,New York,Financial District NY 
42,Transbay District Hotel,36 Tehama St,San Francisco,CA,94105-3110,185,,Planning,37.7876004,-122.3963037,San Francisco/San Mateo,San Francisco Market St 
43,Ascend Collection Jamaica,97-01 Waltham St,Jamaica,NY,11435,60,8/16/2021,In Construction,40.6967902,-73.8063146,New York,JFK/Jamaica 
44,Courtyard Dallas Frisco,4884 Main St,Frisco,TX,75033,158,10/6/2022,In Construction,33.1562961,-96.8422457,Dallas,Denton/Lewisville/McKinney 
45,Topock 66 Spa & Resort Hotel,14999 Oatman-Topock Hwy,Topock,AZ,86436,102,,Final Planning,34.7190153,-114.4831279,Las Vegas,Las Vegas South 
46,Highmount Spa Resort @ Belleayre,49A & S Route 28,Highmount,NY,12441,120,,Planning,42.1463657,-74.4942912,Lower Hudson Valley,Hudson Valley Area NY 
47,Holiday Inn Express Blythe,650 W Wells St,Blythe,CA,92225-2745,80,6/16/2021,In Construction,33.6039137,-114.6040871,Inland Empire,Riverside Surrounding 
48,Centennial Gateway Hotel,2451 Tasman Dr,Santa Clara,CA,95054,200,,Planning,37.4052362,-121.9711374,San Jose/Santa Cruz,Santa Clara/Sunnyvale/Milpitas 
49,Virgin Hotel New York,1205-1225 Broadway,New York,NY,10001-4303,463,9/14/2021,In Construction,40.7465537,-73.9888321,New York,Midtown South NY 
50,Unnamed Hotel @ Rock Spring Center,Old Georgetown Rd,Bethesda,MD,20817,200,,Final Planning,39.0141255,-77.1175231,Washington,Bethesda/College Park 
51,Unnamed Hotel @ Hollywood Park Tomorrow,1050 S Prairie Ave,Inglewood,CA,90303,300,5/31/2022,Final Planning,33.9493358,-118.3417485,Los Angeles,Los Angeles CBD 
52,Staybridge Suites Monroe East,1121 Garrett Rd,Monroe,LA,71203-9015,88,,Deferred,32.4975275,-92.0540167,Louisiana North,Louisiana North Area 
53,TownePlace Suites New York Brooklyn,561-567 President St,Brooklyn,NY,11215-1018,94,7/25/2021,In Construction,40.6774202,-73.9844045,New York,East River-Queens/Brooklyn West 
54,Unnamed Hotel @ Burnham Place @ Union Station,100 Columbus Cir NE,Washington,DC,20002,500,,Planning,38.9009677,-77.0053941,Washington,Washington DC CBD 
55,Candlewood Suites Jackson North,0 Casey Jones Ln,Jackson,TN,38305,100,10/15/2022,Final Planning,35.6615394,-88.8565052,Tennessee Area,Tennessee West Area 
56,Fairfield Inn & Suites New York Queens Jamaica,148-18 Archer Ave,Jamaica,NY,11435-4317,112,6/8/2021,In Construction,40.700954,-73.805132,New York,JFK/Jamaica 
57,Courtyard Santa Cruz,313-335 Riverside Ave,Santa Cruz,CA,95060-5523,151,1/19/2022,In Construction,36.9669357,-122.0189871,San Jose/Santa Cruz,Santa Cruz/San Jose Area 
58,Home2 Suites by Hilton Houston I 10 East,703 Fleming Ct,Houston,TX,77013-5427,92,,Deferred,29.7766664,-95.2433963,Houston,Houston East/Baytown 
59,W Hotel Philadelphia,1439 Chestnut St,Philadelphia,PA,19102-2570,295,8/1/2021,In Construction,39.951542,-75.165043,Philadelphia,Philadelphia CBD 
60,The Boulevards Hotel @ South Bay,20400 Main St,Carson,CA,90745-1034,300,8/1/2022,Final Planning,33.8407643,-118.2667605,Los Angeles,South Bay 
61,Holiday Inn Express  Houston Northeast Bush Airport Area,18555 Kenswick Dr,Humble,TX,77338-7904,100,7/12/2022,Final Planning,29.9870485,-95.296928,Houston,George Bush Airport Area 
62,Toyoko Inn,320 S Clinton St,Chicago,IL,60661-5713,615,,Planning,41.8773773,-87.641469,Chicago,Chicago CBD 
63,Candlewood Suites Joliet,3625 Rock Creek Blvd,Joliet,IL,60431-9030,85,6/1/2022,Final Planning,41.4962184,-88.169457,Chicago,Chicago Southwest 
64,Resorts World Miami Convention Hotel,1420 N Bayshore Dr,Miami,FL,33132,520,,Planning,25.7892402,-80.1887083,Miami,Miami CBD/North 
65,Unnamed Hotel @ Hudson Valley Wine Village,191 Blue Point Rd,Highland,NY,12528-2101,140,,Deferred,41.687833,-73.953111,Lower Hudson Valley,Newburgh/Kingston NY 
66,Hampton by Hilton & Suites Lake Worth,6400 Shady Oaks Manor Dr,Fort Worth,TX,76135,85,6/30/2022,In Construction,32.8039418,-97.423084,Fort Worth/Arlington,Fort Worth CBD/I-820 West 
67,Tapestry Collection by Hilton Hotel Canandaigua,205 Lakeshore Dr,Canandaigua,NY,14424-2311,109,10/7/2021,In Construction,42.8744765,-77.2607923,Rochester,Rochester Other Areas NY 
68,Unnamed Hotel @ HARP,150 Central Main St,Pueblo,CO,81003-4213,130,,Planning,38.2658477,-104.6093865,Colorado Area,Colorado East Area 
69,Westin Raleigh Crabtree Valley,4901 Glenwood Ave,Raleigh,NC,27612-3853,250,,Deferred,35.8427521,-78.6842259,Raleigh/Durham/Chapel Hill,Raleigh Crabtree Mall 
70,Unnamed Hotel @ Fifth Avenue,520 Fifth Ave,New York,NY,10036-7504,208,,Final Planning,40.754465,-73.9805275,New York,Midtown West/Times Square NY 
71,Millennium Sunnyvale,1250 Lakeside Dr,Sunnyvale,CA,94085,263,5/31/2021,In Construction,37.3887127,-121.9905759,San Jose/Santa Cruz,San Jose Northwest/Palo Alto 
72,Fairfield Inn & Suites Lebanon Near Expo Center,100 Springwood Dr,Lebanon,PA,17042-7407,90,8/8/2021,In Construction,40.307425,-76.414178,Harrisburg,Harrisburg/Hershey PA 
73,SpringHill Suites Seattle Sea Tac Airport,International Blvd & S 176th St,SeaTac,WA,98188,133,,Deferred,47.4461962,-122.2957194,Seattle,Seattle Airport 
74,Starlux Boutique,305 E Rio Grande Ave,Wildwood,NJ,8260,140,,Final Planning,38.9813494,-74.820847,New Jersey Shore,South Shore/Vineland NJ 
75,Embassy Suites by Hilton Virginia Beach Oceanfront,4101 Atlantic Ave,Virginia Beach,VA,23451,158,2/2/2023,In Construction,36.8693748,-75.9805354,Norfolk/Virginia Beach,Virginia Beach 
76,Courtyard New York Queens Jamaica,148-22 Archer Ave,Jamaica,NY,11435,224,6/8/2021,In Construction,40.7009504,-73.805142,New York,JFK/Jamaica 
77,Williams Lake Resort,Williams Lake Rd,Rosendale,NY,12472,130,,Abandoned,41.8620572,-74.0819419,Lower Hudson Valley,Newburgh/Kingston NY 
78,Unknown Name,Loudoun County Pky,Ashburn,VA,20147,400,,In Construction,39.054325,-77.4527778,Washington,Dulles Airport Area 
79,Mandarin Oriental Boca Raton,700 S Federal Hwy,Boca Raton,FL,33432,163,9/1/2021,In Construction,26.3424172,-80.0856222,Palm Beach ,Boca Raton 
80,Chateau Celeste,1175 N Vermont Ave,Los Angeles,CA,90029-1710,31,,In Construction,34.0929436,-118.2920917,Los Angeles,Hollywood/Beverly Hills 
81,Hampton Inn & Suites Austin North,13001 Center Lake Dr,Austin,TX,78753-1014,94,1/1/2025,Planning,30.4064483,-97.6674253,Austin,Austin US-290/I-35 Area 
82,Montage Resort @ Hanalei Plantation,Honu Rd,Princeville,HI,96722,120,,Abandoned,22.2177094,-159.4974514,Hawaii/Kauai Islands,Kauai 
83,Courtyard Sherman,4344 N Loy Lake Rd,Sherman,TX,75092,117,11/24/2021,In Construction,33.6881465,-96.6069166,Texas East,Texas East Area 
84,SpringHill Suites Hartford Manchester Vernon,3 Tolland Tpke,Vernon Rockville,CT,6066,90,,In Construction,41.8200393,-72.5046797,Hartford,Hartford North/Windsor Locks 
85,Ascend Collection New York City,16 E 30th St,New York,NY,10016-7028,100,8/13/2021,In Construction,40.745342,-73.985512,New York,Midtown South NY 
86,Hampton Inn & Suites Charleston Spring St,210 Spring St,Charleston,SC,29403-5124,125,,Planning,32.7894239,-79.9486877,Charleston,Charleston/West Ashley 
87,LLC Boutique Hotel,3935-3937 27th St,Long Island City,NY,11101-3812,79,7/1/2021,In Construction,40.7533427,-73.9365372,New York,East River-Queens/Brooklyn West 
88,Embassy Suites by Hilton Kansas City Downtown,925 Grand Blvd,Kansas City,MO,64106-2006,284,1/1/2023,Planning,39.1025193,-94.5803503,Kansas City,Kansas City CBD 
89,Fairfield Inn & Suites Crystal Lake,900 Cog Cir,Crystal Lake,IL,60014,88,8/24/2024,Planning,42.2283518,-88.288682,Chicago,Chicago Northwest 
90,Hampton Inn & Suites Philadelphia Airport South Essington,514 S Governor Printz Blvd,Essington,PA,19029-1738,130,2/20/2025,Planning,39.871806,-75.278803,Philadelphia,Philadelphia Airport/Stadium 
91,Holiday Inn Express & Suites Monroe East,I 20 & Garrett Rd,Monroe,LA,71203,84,,Deferred,32.4932654,-91.9975844,Louisiana North,Louisiana North Area 
92,Tru by Hilton Phoenix Airport South,3200 S 48th St,Phoenix,AZ,85040,114,9/16/2024,Final Planning,33.4187442,-111.9800286,Phoenix,Phoenix Airport 
93,Embassy Suites Pier Park Panama City Beach,Front Beach Rd @ Pier Park,Panama City Beach,FL,32413,255,,Unconfirmed,30.215444,-85.87554,Florida Panhandle,Panama City 
94,La Bahia Hotel,215 Beach St,Santa Cruz,CA,95060-5449,165,,Deferred,36.9640157,-122.021842,San Jose/Santa Cruz,Santa Cruz/San Jose Area 
95,citizenM San Francisco,72 Ellis St,San Francisco,CA,94102-2208,186,,In Construction,37.7857781,-122.4074456,San Francisco/San Mateo,San Francisco Market St 
96,West Rosemary Hotel,110 W Rosemary St,Chapel Hill,NC,27516-2507,150,,Planning,35.9142138,-79.0571038,Raleigh/Durham/Chapel Hill,Durham/Chapel Hill 
97,Holiday Inn Express Long Island City,52-09 31st Pl,Long Island City,NY,11101,201,5/5/2022,In Construction,40.7370695,-73.9364013,New York,East River-Queens/Brooklyn West 
98,Residence Inn Ventura Downtown,770 S Seaward Ave,Ventura,CA,93001-3739,128,5/17/2022,In Construction,34.2642021,-119.2665948,California Central Coast,Oxnard/Ventura 
99,Comfort Suites Youngstown,5431 76 Dr,Youngstown,OH,44515-1126,68,8/30/2021,In Construction,41.1212361,-80.7665362,Ohio Area,Youngstown/Warren OH 
100,Unnamed Hotel,31-16 Linden Pl,Flushing,NY,11354,36,,In Construction,40.7688084,-73.8327166,New York,La Guardia/Queens North 
101,Unnamed Hotel @ The Horse Station at Cache Valley,Hwy 91 & Legacy Dr,Franklin,ID,83237,100,,Planning,42.0042282,-111.807761,Idaho,Idaho South Area 
102,Holiday Inn Express & Suites Battle Creek East,1967 E Michigan Ave,Battle Creek,MI,49014,87,,Deferred,42.2990009,-85.0828174,Michigan South,Kalamazoo/Battle Creek 
103,Hampton Inn Lafayette,3941 South St,Lafayette,IN,47905-4812,18,,Final Planning,40.41695,-86.8305024,Indiana North,Lafayette/Kokomo 
104,Hilton Garden Inn Orlando International Drive Convention Center,8959 Universal Blvd,Orlando,FL,32819,155,,Deferred,28.435643,-81.469096,Orlando,Orlando International Drive 
105,Jekyll Island Club Resort,371 N Riverview Dr,Jekyll Island,GA,31527-0874,39,,Planning,31.0596327,-81.4220271,Georgia South,Brunswick/Kingsland 
106,Courtyard New York Downtown Manhattan/Financial District,215 Pearl St,New York,NY,10038-4916,200,5/3/2021,In Construction,40.7072417,-74.0062557,New York,Financial District NY 
107,Residence Inn New York Downtown Manhattan/Financial District,215 Pearl St,New York,NY,10038-4916,120,5/3/2021,In Construction,40.7072975,-74.006272,New York,Financial District NY 
108,Boston Landing Hotel,180 Guest St,Brighton,MA,2135,175,11/1/2022,Planning,42.3568888,-71.1422254,Boston,Cambridge/Waltham 
109,Bushwick Hotel,101 Bogart St,Brooklyn,NY,11206-3709,42,7/30/2021,In Construction,40.7073494,-73.9339447,New York,New York City Area 
110,Kingsley Hotel @ Avenue Of The Americas,1146-1150 Avenue of the Americas,New York,NY,10036,350,,Deferred,40.756348,-73.9826824,New York,Midtown West/Times Square NY 
111,Enchanted Resorts Hotel,515 Foothill Blvd,Calistoga,CA,94515,110,,Planning,38.5731471,-122.5744825,California North,Napa Valley 
112,Holiday Inn Express & Suites Bullhead City,1300 Silver Creek Rd,Bullhead City,AZ,86442,89,7/1/2021,In Construction,35.1212841,-114.5806304,Las Vegas,Las Vegas South 
113,Embassy Suites by Hilton Oceanside,Jefferson St,Oceanside,CA,92054,179,8/12/2024,Final Planning,33.1806166,-117.336498,San Diego,Carlsbad/Oceanside 
114,Hampton Inn by Hilton Oceanside,Jefferson St,Oceanside,CA,92054,135,11/4/2024,Final Planning,33.1799315,-117.3381327,San Diego,Carlsbad/Oceanside 
115,Homewood Suites by Hilton Oceanside,Jefferson St,Oceanside,CA,92054,112,8/12/2024,Final Planning,33.1800725,-117.3388875,San Diego,Carlsbad/Oceanside 
116,Courtyard Shreveport Bossier City Louisiana Boardwalk,100 Boardwalk Blvd,Bossier City,LA,71111-4386,50,,Deferred,32.5172431,-93.739169,Louisiana North,Shreveport 
117,Hotel Indigo Flushing,3557 Prince St,Flushing,NY,11354-2732,150,1/4/2022,In Construction,40.7623049,-73.8327755,New York,La Guardia/Queens North 
118,Three Rivers Casino Hotel,5647 Highway 126,Florence,OR,97439-9200,107,,Planning,43.9825211,-124.0875298,Oregon Area,Eugene 
119,Four Points by Sheraton Flushing,134-37 35th Ave,Flushing,NY,11354,210,6/1/2021,In Construction,40.76475,-73.832297,New York,La Guardia/Queens North 
120,Kingsland Entertainment & Epic Adventures,239 May Creek Rd,Kingsland,GA,31548,1400,,Deferred,30.7860919,-81.6617919,Georgia South,Brunswick/Kingsland 
121,Residence Inn,2050 24th Ave NW,Norman,OK,73069-6400,124,10/12/2021,In Construction,35.2418524,-97.4777452,Oklahoma City,Norman/Moore 
122,TownePlace Suites Gulfport,10356 US 49,Gulfport,MS,39503,108,3/12/2023,Final Planning,30.4362478,-89.0956172,Mississippi,Biloxi/Gulfport 
123,TownePlace Suites Eugene Downtown,1000 Valley River Way,Eugene,OR,97401-2215,100,12/7/2023,Planning,44.0651766,-123.101033,Oregon Area,Eugene 
124,Hilton Garden Inn Raleigh Downtown,200 W Davie St,Raleigh,NC,27601-1737,140,7/13/2023,Final Planning,35.7758911,-78.642429,Raleigh/Durham/Chapel Hill,Cary/South Raleigh 
125,Marriott Seattle Lake Union,300 Terry Ave N,Seattle,WA,98109-5209,296,3/18/2022,In Construction,47.6211655,-122.3368165,Seattle,Seattle CBD 
126,Holiday Inn Frisco South,4909 Dallas Pky,Frisco,TX,75093,122,11/15/2022,Planning,33.052954,-96.8313233,Dallas,West Plano/Frisco 
127,Holiday Inn Express & Suites Jacksonville-Western Boulevard,139 Moosehaven Rd,Jacksonville,NC,28546-5503,100,8/17/2021,In Construction,34.7807518,-77.398588,North Carolina East,North Carolina Southeast Area 
128,Ascend Collection Breckenridge Hotel & Convention Center,216 W 6th Ave,Emporia,KS,66801-4079,86,6/30/2021,In Construction,38.4058608,-96.1832984,Kansas,Kansas Area 
129,The Raleigh Miami Beach,1775 Collins Ave,Miami Beach,FL,33139-2006,70,,Planning,25.793743,-80.129062,Miami,Miami Beach 
130,Hotel Indigo Starkville University Area,87 Cotton Mill Rd,Starkville,MS,39759-8179,110,,Deferred,33.4557725,-88.8036069,Mississippi,Vicksburg/Central Area 
131,SpringHill Suites By Marriott Dallas Coppell,8500 S Belt Line Rd,Coppell,TX,75019,120,4/5/2023,In Construction,32.9264277,-96.9919901,Dallas,Denton/Lewisville/McKinney 
132,TownePlace Suites By Marriott San Luis Obispo,1301 Calle Joaquin,San Luis Obispo,CA,93405,113,7/28/2021,In Construction,35.2503742,-120.6803344,California Central Coast,San Luis Obispo/Paso Robles 
133,Hotel Indigo Saratoga Springs,353 Broadway,Saratoga Springs,NY,12866-3135,140,,Abandoned,43.0803606,-73.7866112,Albany,Latham/Saratoga Springs 
134,Homewood Suites by Hilton Raleigh Durham Airport Brier Creek,10100 Lumley Rd,Raleigh,NC,27617,135,9/20/2023,Final Planning,35.899845,-78.784284,Raleigh/Durham/Chapel Hill,Research Triangle Park/Airport NC 
135,Autograph Collection 95 Rockwell Place,95 Rockwell Pl,Brooklyn,NY,11217-1105,201,,Deferred,40.687191,-73.979008,New York,East River-Queens/Brooklyn West 
136,Hyatt Place Pomona,55 Rancho Camino Dr,Pomona,CA,91766-4728,115,2/29/2024,Final Planning,34.0273294,-117.7591926,Los Angeles,Los Angeles East 
137,Strand & Pier,1250 The Strand,Hermosa Beach,CA,90254,100,,Deferred,33.8622441,-118.4016116,Los Angeles,South Bay 
138,Holiday Inn Express & Suites Chandler Central,1250 S Arizona Ave,Chandler,AZ,85286,110,5/23/2022,Deferred,33.2890274,-111.8427997,Phoenix,Phoenix Southeast/Chandler 
139,Holiday Inn Express & Suites San Antonio East - I-10,1414 Palmyra Dr,San Antonio,TX,78109,70,5/27/2021,In Construction,29.442327,-98.364865,San Antonio,San Antonio Northeast 
140,Staybridge Suites Ontario,N Trademark Pky,Rancho Cucamonga,CA,91730,114,7/1/2022,Final Planning,34.0738252,-117.5747185,Inland Empire,Ontario & Airport 
141,Holiday Inn Grover Beach,950 El Camino Real,Grover Beach,CA,93433-1449,134,6/30/2022,Final Planning,35.1334186,-120.618473,California Central Coast,San Luis Obispo/Paso Robles 
142,Courtyard Jacksonville Downtown,51 W Forsyth St,Jacksonville,FL,32202-3603,131,,Final Planning,30.3275774,-81.6589167,Jacksonville,Jacksonville/Airport 
143,Fairfield Inn & Suites San Francisco Airport North,127 W Harris Ave,South San Francisco,CA,94080-6010,128,8/12/2021,In Construction,37.6503677,-122.4038496,San Francisco/San Mateo,San Francisco Airport 
144,Holiday Inn Express & Suites Houma,Grand Caillou Rd & Oaklawn Dr,Houma,LA,70363,80,,Deferred,29.5754204,-90.6892209,Louisiana South,Louisiana South Area 
145,The FiDi Hotel,11 Stone St,New York,NY,10004-2211,131,9/15/2021,In Construction,40.7042513,-74.0122481,New York,Financial District NY 
146,TownePlace Suites Asheville,39 Elm St,Asheville,NC,28801-2316,95,7/15/2021,In Construction,35.6007306,-82.552661,North Carolina West,Asheville NC 
147,Homewood Suites by Hilton Atlanta Downtown,311 Marietta St NW,Atlanta,GA,30313-1628,129,,Deferred,33.7618471,-84.3955806,Atlanta,Atlanta CBD 
148,Home2 Suites by Hilton Baltimore BWI Airport,1018 Andover Rd,Linthicum Heights,MD,21090-3031,108,7/16/2025,Planning,39.2011853,-76.678584,Baltimore,BWI Airport 
149,aloft Hotel New York Chelsea North,450 11th Ave,New York,NY,10018,440,,Abandoned,40.757359,-74.000518,New York,Midtown South NY 
150,Dream Dallas,3207 McKinney Ave,Dallas,TX,75204-2472,128,12/16/2022,Final Planning,32.803443,-96.8002922,Dallas,Dallas CBD/Market Center 
151,Comfort Inn & Suites Fort Mill,501 S Sutton Rd,Fort Mill,SC,29715,95,6/28/2021,In Construction,34.9972909,-80.97151,Charlotte,Monroe & Rock Hill NC-SC 
152,Hampton Inn & Suites Rockingham,748 E US Highway 74,Rockingham,NC,28379,85,10/5/2021,In Construction,34.9144401,-79.7342434,North Carolina East,North Carolina Southeast Area 
153,Holiday Inn Express & Suites Memphis Downtown,Union Ave And S 4th St,Memphis,TN,38103,115,10/10/2022,Final Planning,35.141573,-90.048144,Memphis,Memphis CBD 
154,Hotel Indigo New York City Financial District,8 Maiden Ln,New York,NY,10038-4002,190,6/16/2021,In Construction,40.7094224,-74.0094867,New York,Financial District NY 
155,Hampton Inn Jackson Fondren District,3111 N State St,Jackson,MS,39216-4004,111,,Deferred,32.3367826,-90.1763787,Jackson,Jackson I-55 North/Clinton MS 
156,Residence Inn Paso Robles,121 Wilmar Pl,Paso Robles,CA,93446-8680,128,7/20/2023,Final Planning,35.5918856,-120.6963026,California Central Coast,San Luis Obispo/Paso Robles 
157,Hampton by Hilton & Suites Greensboro Downtown,332 Greene St,Greensboro,NC,27401,120,5/17/2021,In Construction,36.0690139,-79.7925517,Greensboro/Winston Salem,Greensboro 
158,AC Hotels by Marriott San Diego Downtown,743 5th Ave,San Diego,CA,92101-6917,145,1/15/2022,In Construction,32.7131479,-117.1599563,San Diego,San Diego CBD 
159,Courtyard Olympia,2102 SE Henderson Park Ln,Olympia,WA,98501,124,8/3/2023,Planning,47.0278182,-122.8846657,Washington State,Tacoma/Olympia 
160,Courtyard San Diego Chula Vista,2380 Olympic Pkwy,Chula Vista,CA,91913,153,,Deferred,32.628319,-116.968138,San Diego,San Diego South/East 
161,Residence Inn Corte Madera,56 Madera Blvd,Corte Madera,CA,94925-1227,128,6/24/2023,Final Planning,37.930712,-122.517447,San Francisco/San Mateo,San Francisco Area 
162,SpringHill Suites Corte Madera,56 Madera Blvd,Corte Madera,CA,94925-1227,82,1/1/2025,Final Planning,37.9307245,-122.5174614,San Francisco/San Mateo,San Francisco Area 
163,Unknown Name,11221 Northern Blvd,Corona,NY,11368,292,1/1/2024,In Construction,40.758474,-73.856724,New York,La Guardia/Queens North 
164,Holiday Inn Express & Suites Jonesboro,2920 McClellan Dr,Jonesboro,AR,72401-7238,95,9/1/2021,In Construction,35.8089612,-90.6837589,Arkansas Area,Arkansas North Area 
165,Holiday Inn & Suites Detroit North Troy,870 Tower Dr,Troy,MI,48098,130,12/1/2021,In Construction,42.5967131,-83.1651768,Detroit,Auburn Hills/Madison Heights 
166,MainStay Suites Oklahoma City,41 NE 36th St,Oklahoma City,OK,73105,60,,Deferred,35.5080529,-97.5102935,Oklahoma City,Oklahoma City North 
167,Holiday Inn Express NYC Brooklyn - Sunset Park,833 39th St,Brooklyn,NY,11232-3229,92,6/24/2021,In Construction,40.6468399,-73.9962683,New York,New York City Area 
168,La Quinta Inns & Suites Brooklyn 33rd Street,142 33rd St,Brooklyn,NY,11232-2108,72,6/30/2022,In Construction,40.6562856,-74.0035845,New York,New York City Area 
169,Hilton Garden Inn Herndon Reston,232 Sunset Park Dr,Herndon,VA,20170,136,6/25/2024,Final Planning,38.9561586,-77.3743601,Washington,Dulles Airport Area 
170,Home2 Suites by Hilton Los Angeles Downtown,1101 W 7th St,Los Angeles,CA,90017-2409,143,12/5/2022,Final Planning,34.0512507,-118.2642771,Los Angeles,Los Angeles CBD 
171,Staybridge Suites Long Island City - NYC,38-55 11th St,Long Island City,NY,11101,240,12/21/2021,In Construction,40.7570016,-73.9426625,New York,East River-Queens/Brooklyn West 
172,Loews Downtown Memphis Hotel,140 N Main St,Memphis,TN,38103,500,,Planning,35.1488679,-90.0510138,Memphis,Memphis CBD 
173,AC Hotels by Marriott New York City La Guardia Airport,112-12-112-24 Astoria Blvd,East Elmhurst,NY,11369,126,9/1/2021,In Construction,40.7592944,-73.8574844,New York,La Guardia/Queens North 
174,Hampton Inn West Diversey Parkway,601 W Diversey Pky,Chicago,IL,60614-1510,120,,Planning,41.9325188,-87.6437869,Chicago,Chicago CBD 
175,Napa River Inn,500 Main St,Napa,CA,94559-3353,26,,Planning,38.296255,-122.282727,California North,Napa Valley 
176,Stanly Ranch,200 Stanly Cross Rd,Napa,CA,94559,130,,In Construction,38.244436,-122.304907,California North,Napa Valley 
177,The Venice Place Project,1021-1033 Abbot Kinney Blvd,Venice,CA,90291-3386,80,,Planning,33.992329,-118.471853,Los Angeles,Santa Monica/Marina Del Rey 
178,Unnamed Hotel Vine St,1801 Vine St,Philadelphia,PA,19103-1158,220,7/1/2022,Planning,39.9594355,-75.1693727,Philadelphia,Philadelphia CBD 
179,AC Hotels By Marriott Hudson Yards,432 W 31st St Hudson Yards district,New York,NY,10001,220,,Planning,40.751966,-73.9993,New York,Midtown South NY 
180,Holiday Inn Express & Suites Little Rock Downtown/East Village,811 E 4th St,Little Rock,AR,72202-2601,100,8/18/2021,In Construction,34.7436435,-92.2619703,Little Rock,Little Rock 
181,Candlewood Suites La Place,4284 Main St,La Place,LA,70068-5943,83,,Deferred,30.08799,-90.447054,New Orleans,New Orleans Metairie/Airport 
182,Holiday Inn Express & Suites Firestone - Longmont,11256 Business Park Cir,Firestone,CO,80504-9540,75,6/1/2021,In Construction,40.1642991,-104.9759814,Colorado Area,Colorado East Area 
183,Hampton by Hilton Inn & Suites Houston Sugar Land,218 Highway 6,Sugar Land,TX,77479,122,6/30/2021,In Construction,29.6096964,-95.6486583,Houston,Houston Southwest Freeway 
184,Equinox Hotel @ Grand Avenue,100 S Grand Ave,Los Angeles,CA,90012,300,8/1/2021,In Construction,34.0549767,-118.2485427,Los Angeles,Los Angeles CBD 
185,Unnamed Hotel @ Colorado & Hill,1355 East Colorado Boulevard  39 N Hill Ave,Pasadena,CA,91106,375,,Unconfirmed,34.146195,-118.122414,Los Angeles,Pasadena/Glendale/Burbank 
186,Unnamed Hotel 2 @ Colorado & Hill,1336 E Colorado Blvd,Pasadena,CA,91106,150,,Unconfirmed,34.145609,-118.122534,Los Angeles,Pasadena/Glendale/Burbank 
187,City Flats Hotel Port Huron,800 Military St,Port Huron,MI,48060-5440,36,7/1/2021,In Construction,42.9750885,-82.4240926,Detroit,Warren/Northeast 
188,Homewood Suites by Hilton Paso Robles,2348 Golden Hill Rd,Paso Robles,CA,93446-7009,105,7/23/2024,Final Planning,35.6436513,-120.6572096,California Central Coast,San Luis Obispo/Paso Robles 
189,Hotel Clare,1931 2nd Ave,Seattle,WA,98101,237,,Abandoned,47.6114295,-122.3417384,Seattle,Seattle CBD 
190,Hilton Savannah Riverfront Historic District,611 W River St,Savannah,GA,31401-1130,204,1/18/2023,Planning,32.081615,-81.090926,Savannah,Savannah Historic District 
191,SpringHill Suites New York JFK Airport/Jamaica,14035 Queens Blvd,Jamaica,NY,11435-3219,159,5/1/2021,In Construction,40.703263,-73.8145251,New York,JFK/Jamaica 
192,Ascend Collection Long Island City,38-60 11th St,Long Island City,NY,11101,31,12/1/2022,In Construction,40.7571452,-73.9432402,New York,East River-Queens/Brooklyn West 
193,Solis Orlando,International Dr & Kirkman Rd,Orlando,FL,32819,466,7/20/2022,Planning,28.4615749,-81.4573632,Orlando,Orlando International Drive 
194,Candlewood Suites Portland West Hillsboro,2525 NE Aloclek Dr,Hillsboro,OR,97124,92,,Deferred,45.537954,-122.894708,Portland,Beaverton/Sunset Hwy West 
195,Hyatt House Orlando International Drive,5374 International Dr,Orlando,FL,32819-9427,175,6/29/2022,In Construction,28.461888,-81.450861,Orlando,Orlando International Drive 
196,Omni Boston Seaport Hotel,450 Summer St,Boston,MA,2210,1054,8/22/2021,In Construction,42.3471906,-71.0428013,Boston,Boston CBD/Airport 
197,Ascend Collection The Draper,46 W 37th St,New York,NY,10018-7485,143,5/1/2021,In Construction,40.7510199,-73.985401,New York,Midtown South NY 
198,"Le Méridien New York, Midtown South",292 5th Ave,New York,NY,10001-4513,182,10/15/2021,In Construction,40.746377,-73.986406,New York,Midtown South NY 
199,Candlewood Suites Smyrna,2250 Corporate Plaza Pky,Smyrna,GA,30080-2907,93,7/15/2021,In Construction,33.898475,-84.4779546,Atlanta,Galleria/Marietta 
200,Hampton by Hilton & Suites Sunnyvale/Silicon Valley,861 E El Camino Real,Sunnyvale,CA,94087-2937,162,7/11/2021,In Construction,37.3543642,-122.0149552,San Jose/Santa Cruz,Santa Clara/Sunnyvale/Milpitas 
201,Hilton Garden Inn Jamaica Air Train,93-43 Sutphin Blvd,Jamaica,NY,11435,221,4/5/2023,Final Planning,40.6993875,-73.806874,New York,JFK/Jamaica 
202,The Hotel @ Siesta Promenade,6450 S Tamiami Trl,Sarasota,FL,34231,130,,Planning,27.2591712,-82.5255018,Sarasota,Sarasota/Beaches 
203,La Quinta Inns & Suites Oklahoma City Downtown,15 SW 7th St,Oklahoma City,OK,73109,110,5/30/2022,Final Planning,35.4596295,-97.5151729,Oklahoma City,Oklahoma City CBD 
204,Home2 Suites by Hilton Marysville,4070 116th St NE,Marysville,WA,98271-8420,90,,Abandoned,48.0994108,-122.1774084,Seattle,Seattle North/Everett 
205,Hyatt Place Walnut Creek,699 Ygnacio Valley Rd,Walnut Creek,CA,94596,250,,Abandoned,37.9062,-122.059237,Oakland,Oakland Northeast/Concord 
206,Fairfield Inn & Suites Houston La Porte,SWC Fairmont Pkwy & S 16th St,La Porte,TX,77571,80,7/28/2023,Planning,29.6512248,-95.0363304,Houston,Houston East/Baytown 
207,Hampton Inn by Hilton Chicago Illinois Medical District,2015 W Ogden Ave,Chicago,IL,60612-3713,135,1/18/2023,In Construction,41.8728183,-87.678012,Chicago,Chicago CBD 
208,Holiday Inn Express & Suites Bellevue,969 118th Ave SE,Bellevue,WA,98005-3855,170,4/1/2022,In Construction,47.6002581,-122.1843649,Seattle,Bellevue/East 
209,Park Vue Inn Motel,1570 S Harbor Blvd,Anaheim,CA,92802-2383,94,,Abandoned,33.8088719,-117.9139306,Orange County,Disneyland 
210,Staybridge Suites Seattle Bellevue,969 118th Ave SE,Bellevue,WA,98005-3855,109,7/21/2022,Final Planning,47.6003569,-122.1842949,Seattle,Bellevue/East 
211,TownePlace Suites Pismo Beach,110 N Oak Park Blvd,Pismo Beach,CA,93449,105,10/6/2023,Planning,35.1314764,-120.6086792,California Central Coast,San Luis Obispo/Paso Robles 
212,Comfort Inn & Suites Edmond,3826 S Broadway,Edmond,OK,73013-4111,81,4/30/2022,Final Planning,35.6178592,-97.4883332,Oklahoma City,Oklahoma City North 
213,Homewood Suites by Hilton Charleston Downtown,1002 Quarrier St,Charleston,WV,25301,110,3/12/2025,Planning,38.3486699,-81.6330163,West Virginia,Charleston WV 
214,Auberge Resort Sun Valley,300 River St E,Ketchum,ID,83340,62,,In Construction,43.6790362,-114.3613177,Idaho,Idaho South Area 
215,"Hotel Paso Robles, Curio Collection by Hilton",944 Pine St,Paso Robles,CA,93446-2542,151,2/15/2023,In Construction,35.6243759,-120.6881426,California Central Coast,San Luis Obispo/Paso Robles 
216,Wingate by Wyndham Long Island City,32-35 Queens Blvd,Long Island City,NY,11101,125,6/20/2021,In Construction,40.7451468,-73.9318069,New York,East River-Queens/Brooklyn West 
217,Holiday Inn Resort Gulfport beachfront,200 E Beach Blvd,Gulfport,MS,39507-1200,152,6/1/2021,In Construction,30.3772712,-89.0525791,Mississippi,Biloxi/Gulfport 
218,Hampton by Hilton Inn Oakhurst Yosemite,40820 Highway 41,Oakhurst,CA,93644-9641,108,6/1/2021,In Construction,37.3395554,-119.6448604,California South/Central,Fresno 
219,Hampton Inn & Suites Los Angeles Koreatown,301 S Harvard Blvd,Los Angeles,CA,90020-3404,171,10/16/2025,In Construction,34.0688026,-118.3036854,Los Angeles,Los Angeles CBD 
220,Hampton Inn & Suites San Diego Gaslamp,502-538 7th Ave,San Diego,CA,92101-7121,132,8/19/2025,Final Planning,32.7107421,-117.1585246,San Diego,San Diego CBD 
221,Hampton Inn & Suites Somerset,600 Atrium Dr,Somerset,NJ,8873,100,9/15/2021,In Construction,40.5344331,-74.5221489,Central New Jersey,Hunterdon/Somerset NJ 
222,Homewood Suites by Hilton Raleigh/Downtown,200 W Davie St,Raleigh,NC,27601-1737,110,7/13/2023,Final Planning,35.7758934,-78.642318,Raleigh/Durham/Chapel Hill,Cary/South Raleigh 
223,Yacht Club Hotel Palm Harbor Marina,201 N Flagler Dr,West Palm Beach,FL,33401-4715,40,,Abandoned,26.7150089,-80.0504215,Palm Beach ,West Palm Beach 
224,AC Hotels by Marriott Savannah Downtown,601 Bay St,Savannah,GA,31401-1211,165,1/16/2023,Planning,32.0791886,-81.0826871,Savannah,Savannah Historic District 
225,Fairfield Inn & Suites Fort Worth North,2620 Keller Haslet Rd,Roanoke,TX,76262-5801,88,12/15/2021,In Construction,32.9702822,-97.3055211,Fort Worth/Arlington,Fort Worth North 
226,SpringHill Suites Hilton Head Beaufort,2227 Boundary St,Beaufort,SC,29902,115,7/22/2021,In Construction,32.4424178,-80.696356,South Carolina Area,Hilton Head/Beaufort 
227,Kimpton Tempe,100 S Mill Ave,Tempe,AZ,85281,252,,Unconfirmed,33.429267,-111.940401,Phoenix,Tempe 
228,Comfort Inn & Suites Kingston,15 Sandy Rd,Kingston,NY,12401-2932,94,,Abandoned,41.9410199,-74.0246261,Lower Hudson Valley,Newburgh/Kingston NY 
229,Hilton Garden Inn Chapel Hill Carrboro,107 Padgette Ln,Carrboro,NC,27510,140,9/2/2024,Abandoned,35.909561,-79.0680569,Raleigh/Durham/Chapel Hill,Durham/Chapel Hill 
230,Rossonian Hotel,2650 Welton St,Denver,CO,80205-2912,120,,Planning,39.754256,-104.9783336,Denver,Denver CBD 
231,Candlewood Suites Laurel,13907 Laurel Lakes Ct,Laurel,MD,20707,98,7/6/2022,Final Planning,39.0815165,-76.8671391,Washington,Bethesda/College Park 
232,Staybridge Suites Troy Tower Drive,762 Tower Dr,Troy,MI,48098-2863,120,3/1/2023,Planning,42.5959034,-83.1655149,Detroit,Auburn Hills/Madison Heights 
233,Holiday Inn Express & Suites Houston - N Downtown,3401 N Main St,Houston,TX,77009-5639,95,9/10/2021,In Construction,29.7885915,-95.3705721,Houston,George Bush Airport Area 
234,Holiday Inn Express & Suites Lincoln,905 O St,Lincoln,NE,68508,139,6/15/2021,In Construction,40.8133506,-96.7081656,Nebraska,Lincoln 
235,Holiday Inn Express & Suites San Antonio Lackland AFB,6515 W Military Dr,San Antonio,TX,78227-3615,87,9/30/2022,Final Planning,29.4009631,-98.6279615,San Antonio,San Antonio South 
236,aloft Hotel DFW Airport North,4921 Regent Blvd,Irving,TX,75063,145,1/16/2023,In Construction,32.9362324,-97.0113171,Dallas,Irving North Area 
237,Home2 Suites by Hilton Fort Walton Beach,219 Miracle Strip Pky SW,Fort Walton Beach,FL,32548-6600,112,10/5/2020,Abandoned,30.4039325,-86.6042216,Florida Panhandle,Fort Walton Beach 
238,Home2 Suites by Hilton Tupelo,0 N Gloster St,Tupelo,MS,38804,89,8/18/2021,In Construction,34.2827213,-88.7161156,Mississippi,Tupelo/North Area 
239,Fairfield Inn,131 Amos Bridges Rd,Sanford,NC,27330,105,1/1/2022,In Construction,35.5259547,-79.1814177,North Carolina East,North Carolina Southeast Area 
240,Fairfield Inn & Suites Oakland Alameda,Harbor Bay Pkwy & N Loop Rd,Alameda,CA,94502,105,10/5/2023,Planning,37.7246528,-122.2412406,Oakland,Oakland/Berkeley/Hayward 
241,AC Hotels by Marriott Philadelphia Downtown,230 N 13th St,Philadelphia,PA,19107,156,4/15/2024,Planning,39.9569203,-75.1605726,Philadelphia,Philadelphia CBD 
242,Montage La Quintal @ SilverRock Resort,79087 Ahmanson Ln,La Quinta,CA,92253,134,4/12/2022,Final Planning,33.6677338,-116.281029,Inland Empire,Palm Springs 
243,La Quinta Pendry @ SilverRock Resort,1000 Silverrock Way,La Quinta,CA,92253,200,,Planning,33.6721026,-116.2804229,Inland Empire,Palm Springs 
244,Westin Flushing,13745 Northern Blvd,Flushing,NY,11354,250,3/28/2023,In Construction,40.764061,-73.8292023,New York,La Guardia/Queens North 
245,Cambria hotel & suites Shenandoah,8933 Tamina Rd,Shenandoah,TX,77385-7976,121,,Abandoned,30.1791102,-95.4478466,Houston,Houston North/Woodlands 
246,SpringHill Suites Milpitas Silicon Valley,1201 Cadillac Ct,Milpitas,CA,95035,124,5/27/2021,In Construction,37.445847,-121.919792,San Jose/Santa Cruz,Santa Clara/Sunnyvale/Milpitas 
247,TownePlace Suites Sacramento Elk Grove,9320 E Stockton Blvd,Elk Grove,CA,95624,96,7/15/2021,In Construction,38.4190345,-121.3924556,Sacramento,Sacramento East 
248,TownePlace Suites Detroit Taylor,20777 Eureka Rd,Taylor,MI,48180,100,1/17/2022,In Construction,42.1968242,-83.2365648,Detroit,Romulus/Airport 
249,Homewood Suites by Hilton Oklahoma City Quail Springs,6000 Westlake Memorial Pky,Oklahoma City,OK,73142,99,8/11/2021,In Construction,35.6073247,-97.6233945,Oklahoma City,Oklahoma City North 
250,Holiday Inn Express & Suites Boutte,300 William St,Boutte,LA,70039,75,8/4/2022,Final Planning,29.9007729,-90.3877106,New Orleans,New Orleans Metairie/Airport 
251,Holiday Inn Express & Suites Horseheads,230 Colonial Dr,Horseheads,NY,14845-8400,93,4/25/2023,Planning,42.1637003,-76.871534,New York State,Ithaca/Elmira NY 
252,Altitude Hotel & Residences,1903 5th Ave,Seattle,WA,98101,228,,Deferred,47.612883,-122.338441,Seattle,Seattle CBD 
253,Holiday Inn Express,64-10 Queens Blvd,Woodside,NY,11377,135,6/30/2021,In Construction,40.7407658,-73.9014034,New York,La Guardia/Queens North 
254,Hampton by Hilton Inn & Suintes Miami Kendall,14060 SW 138th Ave,Miami,FL,33186,120,8/26/2021,In Construction,25.6370702,-80.4184549,Miami,Miami South 
255,Courtyard Greeley,0 27th Ave,Greeley,CO,80634,103,,Deferred,40.3936192,-104.7229607,Colorado Area,Colorado East Area 
256,Residence Inn East Peoria,201 Eastlight Ct,East Peoria,IL,61611,111,7/21/2021,In Construction,40.6726322,-89.5762027,Illinois North,Peoria/Pekin 
257,Renaissance St Augustine Historic Downtown Hotel,28 San Marco Ave,Saint Augustine,FL,32084-0703,89,6/1/2021,In Construction,29.8997797,-81.3153521,Jacksonville,Jacksonville Beaches 
258,Residence Inn Greeley,2495 W 28th St,Greeley,CO,80634,109,10/30/2023,Abandoned,40.3931326,-104.7214485,Colorado Area,Colorado East Area 
259,YotelPAD Miami,227-235 NE 2nd St,Miami,FL,33132,222,9/30/2021,In Construction,25.7764301,-80.1896999,Miami,Miami CBD/North 
260,La Quinta Inns & Suites Galveston,6227 Broadway St,Galveston,TX,77551-1035,74,8/1/2021,In Construction,29.2877923,-94.8399195,Texas East,Galveston & Texas City 
261,La Quinta Inns & Suites Houston Generation Park,7710 N Sam Houston Pkwy,Humble,TX,77396-4108,88,9/30/2023,Planning,29.9363716,-95.225589,Houston,George Bush Airport Area 
262,Hilton Raleigh Durham Airport Brier Creek,10100 Lumley Rd,Raleigh,NC,27617,168,9/20/2023,Final Planning,35.8996817,-78.7846584,Raleigh/Durham/Chapel Hill,Research Triangle Park/Airport NC 
263,Hilton Garden Inn Houston Humble,22583 Highway 59,Humble,TX,77339-4404,120,,Deferred,30.0425934,-95.2555496,Houston,Houston North/Woodlands 
264,Hilton Garden Inn Scranton Montage,380 Montage Mountain Rd,Scranton,PA,18507-1782,110,,Deferred,41.351904,-75.6705579,Pennsylvania Northeast,Scranton & Wilkes-Barre 
265,MainStay Suites Colorado Springs East - Medical Center Area,Unknown Address,Colorado Springs,CO,80923,50,9/15/2021,In Construction,38.9138145,-104.7180586,Colorado Springs,Colorado Springs North 
266,Suburban Extended Stay Hotel,1806 Harbor Ct,San Angelo,TX,76904,68,,Deferred,31.4419274,-100.4439844,Texas West,Texas West Area 
267,Comfort Suites Colorado Springs East - Medical Center Area,5940 Stetson Hills Blvd,Colorado Springs,CO,80923-3579,70,11/15/2021,In Construction,38.91392,-104.718069,Colorado Springs,Colorado Springs North 
268,Sleep Inn & Suites I-74 Danville,361 Lynch Dr,Danville,IL,61834-9378,30,,Planning,40.1235069,-87.5407138,Illinois North,Illinois North Area 
269,Comfort Suites Kingman,1149 E Sunrise Ave,Kingman,AZ,86401,85,3/30/2024,Final Planning,35.2157752,-114.0378582,Las Vegas,Las Vegas South 
270,Comfort Inn & Suites Bristol,Ave,Bristol,RI,2809,74,9/30/2023,Final Planning,41.6922513,-71.2756083,Rhode Island,Rhode Island 
271,Gale Boutique Hotel & Residences,401 Bayshore Dr,Fort Lauderdale,FL,33304,96,6/14/2021,Abandoned,26.12872,-80.106608,Fort Lauderdale,Fort Lauderdale/Beach 
272,Candlewood Suites Pico Rivera,6605 Rosemead Blvd,Pico Rivera,CA,90660-3502,81,,Deferred,33.98575,-118.095692,Los Angeles,Los Angeles Southeast 
273,Fairfield Inn & Suites Detroit Rochester,3900 S Rochester Rd,Rochester,MI,48307,106,9/9/2021,In Construction,42.6247024,-83.1324004,Detroit,Auburn Hills/Madison Heights 
274,Marriott San Francisco Mission Bay,Channel St & 3rd St,San Francisco,CA,94158,250,,Deferred,37.774823,-122.390243,San Francisco/San Mateo,San Francisco Market St 
275,Holiday Inn Express & Suites Dalton - Walnut Avenue,934 Market St,Dalton,GA,30720-5049,96,5/22/2021,In Construction,34.7588681,-85.0006695,Georgia North,Georgia Northwest 
276,Holiday Inn Resort Newport Beach,1131 Back Bay Dr,Newport Beach,CA,92660-7405,165,2/20/2024,Final Planning,33.6179297,-117.8966325,Orange County,Newport Beach/Dana Point 
277,Residence Inn Miami Coral Gables,317 Minorca Ave,Miami,FL,33134,150,12/18/2023,Final Planning,25.754481,-80.2625547,Miami,Miami South 
278,Staybridge Suites Newport Beach,1131 Back Bay Dr,Newport Beach,CA,92660-7405,110,2/20/2024,Final Planning,33.6170098,-117.8965057,Orange County,Newport Beach/Dana Point 
279,Four Seasons Hotel Fort Lauderdale,529 N Fort Lauderdale Beach Blvd,Fort Lauderdale,FL,33304-4181,148,10/31/2021,In Construction,26.1302481,-80.1039175,Fort Lauderdale,Fort Lauderdale/Beach 
280,Residence Inn,21101 Ventura Blvd,Woodland Hills,CA,91364-2104,105,6/1/2023,Final Planning,34.1680425,-118.593182,Los Angeles,Los Angeles North 
281,SpringHill Suites San Jose Fremont,46399 Fremont Blvd,Fremont,CA,94538-6440,146,8/29/2021,In Construction,37.4875866,-121.9479291,San Jose/Santa Cruz,Fremont/Newark 
282,Staybridge Suites Green Bay,1963 Holmgren Way,Green Bay,WI,54304-4547,80,,Abandoned,44.497547,-88.0531078,Wisconsin North,Green Bay 
283,Hilton Garden Inn Baton Rouge I 10 East,Park Rowe Blvd,Baton Rouge,LA,70810,150,6/12/2024,Planning,30.3809938,-91.0962164,Louisiana South,Baton Rouge 
284,Homewood Suites by Hilton Santa Clarita Valencia,1 Newhall Ranch Rd,Santa Clarita,CA,91355,107,5/1/2021,In Construction,34.441533,-118.5939402,Los Angeles,Los Angeles North 
285,Holiday Inn Express & Suites Sunnyvale,1101 Elko Dr,Sunnyvale,CA,94089-2208,51,5/19/2022,In Construction,37.4066557,-121.9955488,San Jose/Santa Cruz,Santa Clara/Sunnyvale/Milpitas 
286,"Hotel Davis, Tapestry Collection by Hilton",1111 Richards Blvd,Davis,CA,95616,92,7/21/2022,Abandoned,38.5396893,-121.7380043,Sacramento,Sacramento Northwest 
287,Hotel Barriere Le Fouquet’s New York,456 Greenwich St,New York,NY,10013-1712,96,6/7/2022,In Construction,40.7236354,-74.0098312,New York,Village/Soho/Tribeca 
288,JW Marriott Los Angeles LA Live,900 W Olympic Blvd,Los Angeles,CA,90015,850,,Final Planning,34.045297,-118.266822,Los Angeles,Los Angeles CBD 
289,Thompson Hotels Palm Springs,400 N Palm Canyon Dr,Palm Springs,CA,92262,150,,Abandoned,33.8287264,-116.5462103,Inland Empire,Palm Springs 
290,Thunderbird Resort & Spa,69845 California 111,Rancho Mirage,CA,92270,125,,Abandoned,33.7670219,-116.4470454,Inland Empire,Palm Springs 
291,Unnamed Hotel @ Return to Aztlan Theme Park,45260 Harrison St,Coachella,CA,92236,200,,Planning,33.7192615,-116.1804522,Inland Empire,Palm Springs 
292,Hampton Inn & Suites Cary,1000 Winstead Dr,Cary,NC,27513,107,8/21/2024,Final Planning,35.8321362,-78.7813735,Raleigh/Durham/Chapel Hill,Research Triangle Park/Airport NC 
293,"The Wilshaw Indianapolis, Tapestry Collection by Hilton",4801 W 16th St,Speedway,IN,46224-5723,127,7/28/2022,In Construction,39.7874648,-86.2405115,Indianapolis,Indianapolis Airport/Speedway 
294,Homewood Suites Abilene,2109 Scottish Rd,Abilene,TX,79601-2123,100,,Planning,32.4740229,-99.6894092,Texas West,Abilene 
295,Home2 Suites by Hilton Cary,1000 Winstead Dr,Cary,NC,27513,85,8/21/2024,Final Planning,35.8321113,-78.7814708,Raleigh/Durham/Chapel Hill,Research Triangle Park/Airport NC 
296,Chain Forge Hotel,105 1st Ave,Boston,MA,02129-2042,230,8/1/2021,In Construction,42.3764262,-71.052377,Boston,Cambridge/Waltham 
297,Residence Inn Williamsport,150 W Church St,Williamsport,PA,17701-6507,15,,Planning,41.2394708,-77.0030889,Pennsylvania Area,Pennsylvania Central Area 
298,Unnamed Hotel @ Coronado Island Marine Village,160 N Causeway,New Smyrna Beach,FL,32169,120,,Unconfirmed,29.031077,-80.917348,Daytona Beach,Daytona Beach 
299,Hampton Inn New Orleans East,12201 Levy Dr,New Orleans,LA,70128,83,,Deferred,30.0425024,-89.9564813,New Orleans,New Orleans East/Slidell 
300,Cambria hotel & suites Houston,6245 Will Clayton Pky,Humble,TX,77338,108,,Deferred,29.9839118,-95.2970601,Houston,George Bush Airport Area 
301,Comfort Inn & Suites Oklahoma City,12204 N I 35 Service Rd,Oklahoma City,OK,73131-6402,80,,Deferred,35.5924659,-97.4306949,Oklahoma City,Oklahoma City North 
302,Courtyard Anchorage Midtown,00 C St & W 48th Ave,Anchorage,AK,99503,141,11/14/2023,Planning,61.1763455,-149.885083,Alaska,Alaska 
303,Courtyard Charleston,711 Orleans Rd,Charleston,SC,29407-5752,111,11/25/2023,Planning,32.7921132,-80.0281897,Charleston,Charleston/West Ashley 
304,Courtyard,601 N Shoreline Blvd,Corpus Christi,TX,78401-2346,102,,Deferred,27.7973329,-97.3924088,Texas South,Corpus Christi 
305,Holiday Inn Express Bronx,4729 3rd Ave,Bronx,NY,10458-5811,120,,Abandoned,40.8595063,-73.891406,New York,New York City Area 
306,Holiday Inn Express,1200 Broadway,Brooklyn,NY,11221-3018,89,6/21/2021,In Construction,40.6920724,-73.9271117,New York,New York City Area 
307,La Quinta Inns & Suites Miami Midtown,742 NW 36th St,Miami,FL,33127-3030,200,,Planning,25.8097562,-80.208497,Miami,Miami CBD/North 
308,Comfort Suites Rootstown,4099 Ohio 44,Rootstown,OH,44272,70,,Deferred,41.1006322,-81.2427595,Ohio Area,Akron OH 
309,Sleep Inn & Suites Liberal,508 Hotel Dr,Liberal,KS,67901-4232,41,8/1/2022,Planning,37.0307605,-100.9147817,Kansas,Kansas Area 
310,Holiday Inn Seattle,20440 International Blvd,Seatac,WA,98198-5803,200,,Final Planning,47.418536,-122.29508,Seattle,Seattle Airport 
311,Hampton Inn & Suites Alva,818 Lane St,Alva,OK,73717-2913,86,,Deferred,36.7993759,-98.6474011,Oklahoma Area,Oklahoma West Area 
312,Hyatt House Bryan College Station,3001 Wildflower Dr,Bryan,TX,77802-3061,112,1/26/2022,In Construction,30.6642196,-96.324092,Texas West,Central Texas Area 
313,Renaissance New York Harlem Hotel,233 W 125th St,New York,NY,10027-4408,211,7/8/2021,In Construction,40.8098129,-73.9494493,New York,Uptown NY 
314,Residence Inn Falls Church,7799 Leesburg Pike,Falls Church,VA,22043-2408,160,1/1/2025,Planning,38.9071565,-77.2163347,Washington,Fairfax/Tysons Corner 
315,SpringHill Suites Dallas Arlington South,3800 S Collins St,Arlington,TX,76014,131,6/24/2022,In Construction,32.6829486,-97.0957403,Fort Worth/Arlington,Arlington 
316,AC Hotels by Marriott San Antonio Riverwalk,111 Soledad St,San Antonio,TX,78205-2230,181,8/12/2021,In Construction,29.4252306,-98.4932135,San Antonio,San Antonio CBD 
317,Staybridge Suites Johnstown,4806 Larimer Pkwy,Johnstown,CO,80534-9012,100,4/19/2023,Final Planning,40.4055049,-104.9751682,Colorado Area,Colorado East Area 
318,Ascend Collection Pittsburgh,1111-1119 Penn Ave,Pittsburgh,PA,15222-4205,55,,Deferred,40.4453388,-79.9935214,Pittsburgh,Pittsburgh CBD 
319,Hilton Garden Inn Columbus/Easton,3600 Morse Rd,Columbus,OH,43230,144,12/17/2021,In Construction,40.0586709,-82.9234575,Columbus,Columbus Airport Area 
320,Homewood Suites by Hilton Columbus/Easton,3600 Morse Rd,Columbus,OH,43230,96,12/17/2021,In Construction,40.0587325,-82.9232215,Columbus,Columbus Airport Area 
321,Comfort Inn & Suites Oakdale,7915 Steubenville Pike,Oakdale,PA,15071-9378,83,,Deferred,40.44054,-80.230547,Pittsburgh,Pittsburgh West/Airport 
322,Comfort Suites Paducah,3920 Coleman Crossing Cir,Paducah,KY,42001,72,7/12/2021,In Construction,37.0834546,-88.6814643,Kentucky Area,Kentucky West Area 
323,Holiday Inn Express & Suites Greeley,Centerplace Dr & 44th St,Greeley,CO,80634,100,12/15/2022,Final Planning,40.3955915,-104.7520884,Colorado Area,Colorado East Area 
324,Thompson Hotels Hollywood,1523-1541 Wilcox Ave,Los Angeles,CA,90028-7308,190,7/1/2021,In Construction,34.0989543,-118.3313647,Los Angeles,Hollywood/Beverly Hills 
325,The Godfrey Hotel Hollywood,1400 N Cahuenga Blvd,Los Angeles,CA,90028,220,5/15/2021,In Construction,34.0964347,-118.329158,Los Angeles,Hollywood/Beverly Hills 
326,The UFO Hotel,72252 Baker Blvd,Baker,CA,92309,31,8/1/2021,In Construction,35.2680551,-116.0720211,Inland Empire,San Bernardino Surrounding 
327,Unnamed Extended Stay Hotel @ Front Street,Front Street Pinch District,Memphis,TN,38103,108,,Unconfirmed,35.15489,-90.049994,Memphis,Memphis CBD 
328,Embassy Suites Gainesville,SW 1st Ave & SW 2nd St,Gainesville,FL,32601,200,,Abandoned,29.650887,-82.326212,Florida Central,Gainesville 
329,Four Points by Sheraton Round Rock,2170 Rawhide Dr,Round Rock,TX,78681-7403,104,,Abandoned,30.48791,-97.6810249,Austin,Round Rock/Georgetown 
330,Best Western Vib Chicago,6501 S Cicero Ave,Chicago,IL,60638-5803,74,6/30/2021,In Construction,41.7745966,-87.7417765,Chicago,Chicago South 
331,La Quinta Inn & Suites Richardson,495 W President George Bush Hwy,Richardson,TX,75080-1144,104,7/31/2023,In Construction,33.0025252,-96.7250128,Dallas,East Plano/Richardson 
332,Staybridge Suites Houston East Channelview,16320 Avenue D,Channelview,TX,77530-3732,100,8/1/2022,Final Planning,29.7850755,-95.108755,Houston,Houston East/Baytown 
333,W Los Angeles Downtown,1039 S Flower St,Los Angeles,CA,90015-1401,300,,Deferred,34.0434941,-118.2642163,Los Angeles,Los Angeles CBD 
334,Comfort Inn & Suites Lubbock,6516 Interstate 27,Lubbock,TX,79404-5700,80,6/29/2022,Final Planning,33.5364887,-101.8464407,Texas North,Lubbock 
335,Hampton Inn & Suites South Padre Island,Beach Access 3,South Padre Island,TX,78597,152,2/15/2023,Final Planning,26.1463181,-97.1705198,McAllen/Brownsville,Brownsville 
336,Woolley`s Classic Suites Irving,Royal Ln,Irving,TX,75063,243,,Final Planning,32.9197836,-97.0138567,Dallas,Irving North Area 
337,TownePlace Suites Denver North Thornton,12134 Grant Cir,Thornton,CO,80241-3110,96,10/27/2021,In Construction,39.918116,-104.9833441,Denver,Denver North 
338,TownePlace Suites Chesterfield Township,45275 Marketplace Blvd,Chesterfield,MI,48051-3283,100,1/11/2022,In Construction,42.6334106,-82.8554692,Detroit,Warren/Northeast 
339,Hotel Indigo New York,120 Water St,New York,NY,10005-1638,122,9/15/2021,In Construction,40.70544,-74.00729,New York,Financial District NY 
340,Holiday Inn Express & Suites Steubenville,630 N 3rd St,Steubenville,OH,43952,92,11/20/2022,Final Planning,40.3668259,-80.6092715,Ohio Area,Ohio North Area 
341,Home2 Suites by Hilton Indianapolis Noblesville,13563 Tegler Dr,Noblesville,IN,46060-4515,111,5/1/2024,Planning,39.9930338,-85.9233387,Indianapolis,Indianapolis Rural Areas 
342,Home2 Suites by Hilton North Conway,1439 White Mountain Hwy,North Conway,NH,3860,80,9/11/2021,In Construction,44.0190034,-71.1141843,New Hampshire,Concord/New Hampshire North Area 
343,Holiday Inn Express & Suites Houston NW Garden Oaks,N Loop W & T C Jester Blvd,Houston,TX,77008,120,,Deferred,29.8091866,-95.4376692,Houston,Katy Freeway West 
344,Holiday Inn Express & Suites Stafford NW - Sugar Land,12450A Southwest Fwy,Stafford,TX,77477-2802,93,7/8/2021,In Construction,29.6419991,-95.5811063,Houston,Houston Southwest Freeway 
345,Holiday Inn Erie,2260 Downs Rd,Erie,PA,16509,150,6/15/2021,In Construction,42.0496409,-80.0888497,Pennsylvania Area,Erie/Pennsylvania Northwest Area 
346,Downtown LA Proper Hotel,1106 S Broadway,Los Angeles,CA,90015-2292,148,7/1/2021,In Construction,34.0393262,-118.2589467,Los Angeles,Los Angeles CBD 
347,aloft Jamaica Queens,14903 Archer Ave,Jamaica,NY,11435-4325,194,12/9/2021,In Construction,40.7014786,-73.8050183,New York,JFK/Jamaica 
348,element Jamaica Queens,14911 Archer Ave,Jamaica,NY,11435-4325,94,12/9/2021,In Construction,40.7014659,-73.805058,New York,JFK/Jamaica 
349,W Hotel Nashville,300 12th Ave S,Nashville,TN,37203-4006,346,8/15/2021,In Construction,36.153552,-86.785316,Nashville,Nashville CBD 
350,Hampton by Hilton,115 E Martin Luther King Junior Industrial Blvd,Lockhart,TX,78644,52,1/1/2023,In Construction,29.863442,-97.6663405,Austin,San Marcos/Austin Surrounding 
351,La Quinta Inns & Suites Grandview,12520 71 Hwy,Grandview,MO,64030,90,5/1/2021,In Construction,38.8964183,-94.5258772,Kansas City,Kansas City Surrounding MO 
352,La Quinta Inns & Suites Lake Jackson,203 W Tx-332,Lake Jackson,TX,77566,81,4/30/2023,Final Planning,29.0456343,-95.4656421,Texas South,Texas South Area 
353,La Quinta Inn & Suites Richmond Hill,4454 US Highway 17,Richmond Hill,GA,31324-3344,70,,Planning,31.9273697,-81.3348458,Savannah,Savannah I-95/South 
354,Cambria Hotels,16300 NE 19th Ave,North Miami Beach,FL,33162-4883,129,,Deferred,25.9264707,-80.1624088,Miami,Miami CBD/North 
355,Fairfield Inn Tampa North Temple Terrace,9302 N 30th St,Tampa,FL,33612-8738,83,8/19/2022,Final Planning,28.0344742,-82.4267944,Tampa,Tampa North/Busch Gardens 
356,Hilton Garden Inn Bel Air,4160 Philadelphia Rd,Bel Air,MD,21015-6603,101,11/15/2021,In Construction,39.4795418,-76.2569199,Baltimore,Baltimore Area 
357,Hilton Garden Inn Walnut Creek,470 N Lawrence Way,Walnut Creek,CA,94596,124,5/19/2023,Planning,37.9140421,-122.0645039,Oakland,Oakland Northeast/Concord 
358,Hilton Garden Inn Houston Medical Center,6840 Almeda Rd,Houston,TX,77030,157,7/1/2021,In Construction,29.7047343,-95.3854869,Houston,Houston Medical Ctr/Reliant Stadium 
359,MainStay Suites Des Moines,22237 S Pacific Hwy,Des Moines,WA,98198,40,12/31/2022,Planning,47.4029015,-122.2987249,Seattle,Seattle Airport 
360,Home2 Suites by Hilton Emporia,102 Sadler Ln,Emporia,VA,23847,85,2/11/2022,In Construction,36.6997485,-77.5423071,Virginia Area,Virginia Regional 
361,Home2 Suites by Hilton Houston Medical Center,6840 Almeda Rd,Houston,TX,77030,143,5/12/2021,In Construction,29.7047159,-95.3858447,Houston,Houston Medical Ctr/Reliant Stadium 
362,Comfort Inn Des Moines,26915 Pacific Hwy S,Des Moines,WA,98198,100,12/31/2022,Final Planning,47.3602387,-122.3109721,Seattle,Seattle Airport 
363,Comfort Inn JFK Airport,132-15 Nassau Expy,Jamaica,NY,11430,101,7/1/2021,In Construction,40.6654038,-73.8075001,New York,JFK/Jamaica 
364,The Line Hotel San Francisco,950 Market St,San Francisco,CA,94102,236,7/12/2022,In Construction,37.7832016,-122.4095665,San Francisco/San Mateo,San Francisco Market St 
365,Comfort Suites Archdale,00 I 85 & N Main St,Archdale,NC,27263,85,,Deferred,35.908618,-79.9530353,Greensboro/Winston Salem,Burlington/High Point NC 
366,Holiday Inn Express & Suites Glendale,1001 E Colorado St,Glendale,CA,91205-1225,134,1/20/2022,In Construction,34.142934,-118.2427143,Los Angeles,Pasadena/Glendale/Burbank 
367,Holiday Inn Express & Suites Wade,3955 Pembroke Ln,Wade,NC,28395,96,9/1/2022,Final Planning,35.1215353,-78.7530167,North Carolina East,Fayetteville MSA NC 
368,Holiday Inn Kent,8325 S 218th St,Kent,WA,98032-2057,124,,Deferred,47.4066447,-122.2274599,Seattle,Bellevue/East 
369,Holiday Inn Express & Suites Wichita Falls,1300 Central Fwy,Wichita Falls,TX,76306,93,1/31/2023,Final Planning,33.9379853,-98.5201945,Texas West,Witchita Falls 
370,Embassy Suites by Hilton San Diego Airport Liberty Station,2200 Lee Ct,San Diego,CA,92101-1051,240,,Planning,32.7302145,-117.2127679,San Diego,San Diego CBD 
371,Motel 6 Buda,2600 Kyle Xing,Kyle,TX,78640-5301,60,3/31/2023,Planning,30.027026,-97.8526039,Austin,San Marcos/Austin Surrounding 
372,Studio 6 Trevose,Lincoln Hwy & Northgate Dr,Feasterville Trevose,PA,19053,108,3/31/2023,Planning,40.1203324,-74.9776151,Philadelphia,Philadelphia Northeast/Lower Bucks 
373,Studio 6 Laredo,7124 Rosson Dr,Laredo,TX,78041-1989,36,6/1/2022,Planning,27.561085,-99.446646,Texas South,Texas South Area 
374,Courtyard Seattle Woodinville,17720 127th Pl NE,Woodinville,WA,98072,114,8/19/2023,Final Planning,47.7524409,-122.1697695,Seattle,Bellevue/East 
375,Fairfield Inn & Suites Raleigh Garner,McCormick St,Garner,NC,27529,85,8/7/2022,Final Planning,35.7234862,-78.6455348,Raleigh/Durham/Chapel Hill,Cary/South Raleigh 
376,SpringHill Suites Falmouth,556 Main St,Falmouth,MA,2540,110,,Unconfirmed,41.552648,-70.607249,Massachusetts Area,Cape Cod 
377,Virgin Hotels New Orleans,550 Baronne St,New Orleans,LA,70113-1002,238,9/30/2021,In Construction,29.9490104,-90.073144,New Orleans,New Orleans CBD/French Quarter 
378,MainStay Suites Liberal,Tucker Rd & Kansas St,Liberal,KS,67901,41,,Deferred,37.068287,-100.923286,Kansas,Kansas Area 
379,Residence Inn Atlanta Peachtree City,100 World Dr,Peachtree City,GA,30269-6947,120,11/13/2022,Final Planning,33.4429482,-84.5876199,Atlanta,Atlanta South 
380,Residence Inn San Marcos,625 Commercial Loop,San Marcos,TX,78666-5800,111,5/23/2021,In Construction,29.8254636,-97.9904153,Austin,San Marcos/Austin Surrounding 
381,Unnamed Hotel @ Howard Street,1025 Howard St,San Francisco,CA,94103-2823,181,,Planning,37.7789409,-122.4075125,San Francisco/San Mateo,San Francisco Market St 
382,Unnamed Hotel @ Market Street,1055 Market St,San Francisco,CA,94103-1605,150,,Planning,37.781112,-122.411289,San Francisco/San Mateo,San Francisco Market St 
383,Home2 Suites by Hilton Cincinnati Eastgate,856 Eastgate North Dr,Cincinnati,OH,45245-1588,86,6/1/2021,In Construction,39.0982031,-84.2676778,Cincinnati,Cincinnati Northeast/East 
384,Home2 Suites by Hilton Johnson City,190 Heart Dr,Johnson City,TN,37604-2607,90,6/11/2021,In Construction,36.3313704,-82.4040319,Tennessee Area,Bristol/Kingsport 
385,TownePlace Suites Atlanta Airport North,3424 Norman Berry Dr,Hapeville,GA,30354-1385,100,8/24/2021,In Construction,33.659271,-84.428182,Atlanta,Atlanta Airport 
386,Holiday Inn Fort Lauderdale,2100 S Federal Hwy,Fort Lauderdale,FL,33316-3545,140,6/1/2023,Planning,26.0954585,-80.1361252,Fort Lauderdale,Fort Lauderdale/Beach 
387,Unnamed Hotel,21-16 44th Dr,Long Island City,NY,11101,40,,In Construction,40.747678,-73.946647,New York,East River-Queens/Brooklyn West 
388,Pestana CR7 Times Square,338 W 39th St,New York,NY,10018,177,6/20/2021,In Construction,40.7559721,-73.9931969,New York,Midtown South NY 
389,Old Fourth Ward Boutique Hotel,667 Auburn Ave NE,Atlanta,GA,30312,200,10/31/2022,Planning,33.757157,-84.36535,Atlanta,Atlanta CBD 
390,Hampton Inn & Suites Bridgeport Steelpointe Harbor,321 Stratford Ave,Bridgeport,CT,06608-2740,120,,Deferred,41.1780346,-73.1815476,Connecticut Area,Stamford/Danbury CT 
391,aloft Memphis Downtown,161 Jefferson Ave,Memphis,TN,38103-2218,155,9/6/2021,In Construction,35.1463858,-90.0500181,Memphis,Memphis CBD 
392,Hilton Garden Inn San Carlos,1091 Industrial Rd,San Carlos,CA,94070-4121,162,,Deferred,37.5043654,-122.2484071,San Francisco/San Mateo,San Mateo/Redwood City 
393,Staybridge Suites Kingman Medical Center Area,3421 Hotel Way,Kingman,AZ,86409-3749,80,7/7/2022,Final Planning,35.2236326,-114.0382872,Las Vegas,Las Vegas South 
394,Marriott New York JFK Airport,135-25 142nd St,Jamaica,NY,11436-2131,360,8/2/2021,In Construction,40.6673993,-73.7967374,New York,JFK/Jamaica 
395,Hampton Inn & Suites Placerville,3001 Jacquier Rd,Placerville,CA,95667,112,1/20/2025,Planning,38.7327781,-120.7571354,Sacramento,Sacramento East 
396,"Home2 Suites by Hilton Oakland Airport, CA",110 Hegenberger Rd,Oakland,CA,94621-1422,101,,Deferred,37.7298899,-122.1993037,Oakland,Oakland/Berkeley/Hayward 
397,Cambria hotel Savannah Downtown Historic District,321 Montgomery St,Savannah,GA,31401,101,12/31/2021,In Construction,32.07478,-81.0985374,Savannah,Savannah Historic District 
398,Home2 Suites by Hilton Saraland,88 Shell Rd,Saraland,AL,36571-2215,107,11/11/2026,Final Planning,30.805784,-88.10517,Mobile,Mobile AL Area 
399,TownePlace Suites By Marriott Lake Charles Sulphur,Ruth St & Patton St,Sulphur,LA,70665,88,5/1/2025,Planning,30.212923,-93.3776025,Louisiana South,Louisiana South Area 
400,Holiday Inn Express & Suites Boulder,3365 Diagonal Hwy,Boulder,CO,80301,100,3/1/2023,Planning,40.0395487,-105.2435438,Colorado Area,Boulder & Longmont 
401,Canopy by Hilton New Orleans Downtown,1100 Tulane Ave,New Orleans,LA,70112-1902,176,1/31/2022,In Construction,29.9540378,-90.07431,New Orleans,New Orleans CBD/French Quarter 
402,aloft Denver Tech Center,7764 E Peakview Ave,Centennial,CO,80111,136,9/3/2023,Final Planning,39.5985861,-104.8977932,Denver,Denver Tech Center 
403,AC Hotels by Marriott Seattle North,117 Yale Ave N,Seattle,WA,98109,200,5/22/2023,Planning,47.61921,-122.33072,Seattle,Seattle CBD 
404,AC Hotels by Marriott San Francisco Downtown,Embarcadero & Broadway St,San Francisco,CA,94111-1904,192,,Abandoned,37.799317,-122.3984497,San Francisco/San Mateo,San Francisco Nob Hill/Wharf 
405,Unnamed Hotel @ Ginsberg's Dublin Pub Site,400-402 Bay St,San Francisco,CA,94133-1802,15,,Planning,37.8057991,-122.4138162,San Francisco/San Mateo,San Francisco Nob Hill/Wharf 
406,Langham Place San Francisco,555 Howard St,San Francisco,CA,94105,223,6/30/2025,Planning,37.787392,-122.3968947,San Francisco/San Mateo,San Francisco Market St 
407,Hampton Inn by Hilton North Hollywood,12405-12425 W Victory Blvd,North Hollywood,CA,91606,80,11/21/2025,Planning,34.1869094,-118.4034721,Los Angeles,Los Angeles North 
408,La Quinta Inns & Suites Kansas City Stadium,8809 Leeds Rd,Kansas City,MO,64129-1628,94,3/31/2023,In Construction,39.0541645,-94.4758792,Kansas City,Kansas City Surrounding MO 
409,La Quinta Inns & Suites Miami Downtown,Downtown Miami,Miami,FL,33127,200,,In Construction,25.806314,-80.191223,Miami,Miami CBD/North 
410,La Quinta Inns & Suites North Miami,2380 Royal Oak Ln,North Miami,FL,33181,200,4/15/2022,Final Planning,25.9155893,-80.1550358,Miami,Miami Beach 
411,Courtyard Carteret Rahway,Pelick Rd,Carteret,NJ,7008,130,11/23/2023,Planning,40.5926948,-74.2400701,Central New Jersey,Brunswick/Edison Area NJ 
412,Cambria hotel & suites Morristown,19 Market St,Morristown,NJ,07960-5122,125,1/1/2022,In Construction,40.7961902,-74.4824183,Newark,Morris/Sussex/Warren NJ 
413,Fairfield Inn & Suites Sacramento Winters,702 Matsumoto Ln,Winters,CA,95694,72,11/3/2021,In Construction,38.5315086,-121.9566945,Sacramento,Sacramento Northwest 
414,Comfort Suites Central Valley,100 Estrada Rd,Central Valley,NY,10917,85,2/1/2023,In Construction,41.3262954,-74.1142441,Lower Hudson Valley,Hudson Valley Area NY 
415,MainStay Suites Marysville,N Colemans Crossing Blvd,Marysville,OH,43040,40,,Abandoned,40.2341608,-83.3471122,Columbus,Columbus Rural Areas 
416,42 Floors,1787 W Big Beaver Rd,Troy,MI,48084-3548,125,,Planning,42.560189,-83.1729534,Detroit,Auburn Hills/Madison Heights 
417,Unnamed Hotel @ The Gunks,16 Plattekill Ave,New Paltz,NY,12561-1917,96,,Planning,41.745937,-74.085487,Lower Hudson Valley,Newburgh/Kingston NY 
418,Sleep Inn & Suites Marysville,400 Colemans Crossing Blvd,Marysville,OH,43040,40,,Deferred,40.234141,-83.3470835,Columbus,Columbus Rural Areas 
419,MainStay Suites Blacksburg,3703 S Main St,Blacksburg,VA,24060,40,1/22/2022,In Construction,37.1854507,-80.4077343,Virginia Area,Blacksburg & Wytheville VA 
420,Hampton Inn & Suites Ontario Rancho Cucamonga,11669 Foothill Blvd,Rancho Cucamonga,CA,91730-3973,100,10/4/2021,In Construction,34.1059106,-117.5501265,Inland Empire,Riverside & San Bernardino Center 
421,Hyatt Place Philadelphia Airport,4521 Island Ave,Philadelphia,PA,19153-3803,150,,Abandoned,39.8873123,-75.231541,Philadelphia,Philadelphia Airport/Stadium 
422,TownePlace Suites Allentown Downtown,5828 Memorial Rd,Allentown,PA,18104-9316,86,12/31/2022,In Construction,40.5908146,-75.5899614,Allentown & Reading,Allentown PA 
423,Holiday Inn Express Washington DC Downtown,303-317 K St NW,Washington,DC,20001,247,7/30/2021,In Construction,38.902813,-77.0155144,Washington,Washington DC CBD 
424,TownePlace Suites Kansas City South,3914 Central St,Kansas City,MO,64111-2211,95,10/22/2022,Final Planning,39.0559557,-94.5897127,Kansas City,Kansas City CBD 
425,Home 2 Suites by Hilton Oklahoma City Bricktown,100 Charlie Christian Ave,Oklahoma City,OK,73104-3202,125,6/3/2024,Planning,35.4651075,-97.5027969,Oklahoma City,Oklahoma City CBD 
426,Holiday Inn Express El Monte,12432 Valley Blvd,El Monte,CA,91732,103,7/31/2022,Final Planning,34.0578015,-118.0106952,Los Angeles,Los Angeles East 
427,Staybridge Suites Fort Collins,301 E Lincoln Ave,Fort Collins,CO,80524-2505,100,12/1/2023,Final Planning,40.5883465,-105.0651897,Colorado Area,Fort Collins Area 
428,Staybridge Suites Bakersfield,Merle Haggard Dr & Industry Pky Dr,Bakersfield,CA,93308,100,10/5/2022,Final Planning,35.4419351,-119.0790827,California South/Central,Bakersfield 
429,Staybridge Suites,2283 N Central Expy,Allen,TX,75013,101,1/1/2022,In Construction,33.1358252,-96.6558662,Dallas,Denton/Lewisville/McKinney 
430,Unnamed Boutique Hotel @ Crystal Palace,300 E Hyman Ave,Aspen,CO,81611-1972,16,,Planning,39.1894974,-106.8206361,Colorado Area,Colorado Ski Area 
431,The Uptown,1911 Telegraph Ave,Oakland,CA,94612,115,,Deferred,37.8086939,-122.27043,Oakland,Oakland/Berkeley/Hayward 
432,Comfort Inn & Suites Oklahoma City,SW 11th Street & S Robinson Ave,Oklahoma City,OK,73109,125,8/1/2022,Planning,35.4536713,-97.5152586,Oklahoma City,Oklahoma City CBD 
433,Hilton Garden Inn Galveston,7627 Stewart Rd,Galveston,TX,77551-1919,140,9/29/2023,Final Planning,29.2587359,-94.8414282,Texas East,Galveston & Texas City 
434,Hampton Inn & Suites Rosemead,3520 Ivar Ave,Rosemead,CA,91770,123,11/21/2025,In Construction,34.0732869,-118.0747966,Los Angeles,Los Angeles East 
435,Tru by Hilton Beckley,9793 Harper Rd,Beckley,WV,25801,106,8/11/2021,In Construction,37.7955129,-81.2160702,West Virginia,West Virginia South Area 
436,Fairfield Inn,4333 Federal Dr,Batavia,NY,14020-4105,64,12/12/2021,In Construction,43.0214957,-78.1962537,Rochester,Rochester Other Areas NY 
437,Home2 Suites by Hilton Bozeman,1760 Baxter Ln,Bozeman,MT,59718-8609,103,8/30/2024,In Construction,45.699754,-111.0597341,Montana,Bozeman/Yellowstone Area MT 
438,Home2 Suites by Hilton Portland Hillsboro,9790 NE Tanasbourne Dr,Hillsboro,OR,97124-9094,153,7/5/2021,In Construction,45.543451,-122.8793421,Portland,Beaverton/Sunset Hwy West 
439,Holiday Inn Express & Suites Hayward,25640 Mission Blvd,Hayward,CA,94544,82,9/1/2021,In Construction,37.6553166,-122.0694516,Oakland,Oakland/Berkeley/Hayward 
440,SpringHill Suites Las Vegas South,372 Kelch Dr,Las Vegas,NV,89119,170,8/25/2023,Final Planning,36.1016558,-115.1575492,Las Vegas,Las Vegas Strip 
441,Unnamed Hotel @ Coconut Grove Metrorail Station,SW 27th Ter,Miami,FL,33133,180,,Abandoned,25.7403709,-80.2376838,Miami,Miami South 
442,Ritz-Carlton San Diego,7th & Market,San Diego,CA,92101,153,,Planning,32.7111125,-117.1578824,San Diego,San Diego CBD 
443,WoodSpring Suites Madison,920 Ann St,Madison,WI,53713-2404,124,,Planning,43.0357461,-89.3986784,Madison,Madison CBD/West 
444,Unnamed Hotel FiveSouth,405 E Sweet Ave,Bismarck,ND,58504-5659,83,,Planning,46.8029637,-100.7858998,North Dakota,Bismarck ND 
445,aloft Hotel Wilmington at Coastline Center,501 Nutt St,Wilmington,NC,28401-3310,125,9/5/2021,In Construction,34.2411712,-77.9510886,North Carolina East,Wilmington NC 
446,Hampton Inn by Hilton Andrews,801 NW Mustang Dr,Andrews,TX,79714,65,4/30/2024,Final Planning,32.3223084,-102.5712894,Texas North,Panhandle Area TX 
447,La Quinta Inns & Suites Kansas City Speedway,325 N 110th St,Edwardsville,KS,66111-1933,85,11/30/2021,In Construction,39.104276,-94.831255,Kansas City,Kansas City West 
448,Hampton Inn Chicago Orland Park,16160 S La Grange Rd,Orland Park,IL,60467,158,8/17/2023,Final Planning,41.5953451,-87.8541861,Chicago,Chicago South 
449,Hampton Inn Suites Santa Clarita Valencia,28700 Newhall Ranch Rd,Valencia,CA,91355,78,9/17/2022,In Construction,34.4417836,-118.5943591,Los Angeles,Los Angeles North 
450,Courtyard Houston East,I-10 & Falcon St,Houston,TX,77015,111,,Abandoned,29.769237,-95.215981,Houston,Houston East/Baytown 
451,Hilton Garden Inn Detroit Utica,44500 Hayes Rd,Clinton Township,MI,48038,126,9/11/2021,In Construction,42.6245735,-82.9694902,Detroit,Warren/Northeast 
452,Hilton Garden Inn Temecula,28210 Jefferson Ave,Temecula,CA,92590-6612,104,11/12/2021,In Construction,33.5020161,-117.1542336,Inland Empire,Riverside Surrounding 
453,Hampton Inn & Suites Claremont,721 S Indian Hill Blvd,Claremont,CA,91711,117,,Deferred,34.0824459,-117.7207959,Los Angeles,Los Angeles East 
454,Hampton Inn & Suites by Hilton Gillette,2312 Westover Rd,Gillette,WY,82718,78,6/11/2025,Planning,44.2919921,-105.5340355,Wyoming,Wyoming Area 
455,Hampton Inn & Suites San Mateo,2940 S Norfolk St,San Mateo,CA,94403-2099,181,12/16/2022,In Construction,37.5443136,-122.2855903,San Francisco/San Mateo,San Mateo/Redwood City 
456,Hampton Inn & Suites Sarasota Downtown,201 Cocoanut Ave,Sarasota,FL,34236-4917,144,10/26/2022,Planning,27.338408,-82.545013,Sarasota,Sarasota/Beaches 
457,Homewood Suites by Hilton Charlotte Uptown,College St & 8th St,Charlotte,NC,28202,125,10/3/2022,In Construction,35.2300716,-80.8381267,Charlotte,Charlotte CBD 
458,Comfort Inn & Suites Crete,1975 County Rd E,Crete,NE,68333-4254,75,,Planning,40.6390325,-97.0120914,Nebraska,Nebraska Area 
459,Home2 Suites by Hilton Redlands,1342 Industrial Park Ave,Redlands,CA,92374-2825,78,8/20/2021,In Construction,34.0646268,-117.2013038,Inland Empire,Riverside & San Bernardino Center 
460,Home2 Suites by Hilton Richmond Short Pump,209 Towne Center West Blvd,Richmond,VA,23233-7159,138,1/28/2022,In Construction,37.658818,-77.6243555,Richmond/Petersburg,Richmond North/Glen Allen 
461,Fairfield Inn & Suites Ada,1431 Stone Bridge Dr,Ada,OK,74820,85,1/30/2023,Final Planning,34.7920689,-96.6566434,Oklahoma Area,Oklahoma East Area 
462,Unknown Name,10000 Keystone Ave,Albertville,MN,55301,125,,Deferred,45.2477156,-93.674171,Minneapolis,Minneapolis North Area 
463,Fairfield Inn & Suites Coeur D`Alene,1808 Northwest Blvd,Coeur d'Alene,ID,83814,107,,Planning,47.6923795,-116.8006532,Idaho,Idaho North Area 
464,Fairfield Inn & Suites Los Angeles North Hollywood,5518 Vineland Ave,North Hollywood,CA,91601-2729,106,11/20/2023,Planning,34.1705714,-118.3695762,Los Angeles,Los Angeles North 
465,Fairfield Inn & Suites Detroit Sterling Heights,Van Dyke Ave,Sterling Heights,MI,48312-1139,96,3/24/2022,In Construction,42.580507,-83.0347796,Detroit,Warren/Northeast 
466,Fairfield Inn & Suites Detroit Taylor,20777 Eureka Rd,Taylor,MI,48180,108,1/17/2022,In Construction,42.1955644,-83.2370511,Detroit,Romulus/Airport 
467,Holiday Inn Express & Suites Redwood City,1690 Broadway St,Redwood City,CA,94063-2402,112,1/15/2023,Final Planning,37.4872682,-122.2208842,San Francisco/San Mateo,San Mateo/Redwood City 
468,Holiday Inn Express El Paso North,8725 Gateway Blvd,El Paso,TX,79904-1212,88,7/17/2021,In Construction,31.8617673,-106.442056,Texas West,El Paso 
469,Fairfield Inn & Suites Winnemucca,5820 W Winnemucca Blvd,Winnemucca,NV,89445,80,9/7/2021,In Construction,40.9760432,-117.7203406,Nevada Area,Carson City/Nevada Area 
470,Fairfield Inn & Suites Whitestown,6600 Central Blvd E,Whitestown,IN,46075,82,1/14/2023,Final Planning,39.946715,-86.3515007,Indianapolis,Indianapolis Rural Areas 
471,Fairfield Inn & Suites Atlanta Marietta,2490 Delk Rd,Marietta,GA,30067,96,6/17/2021,In Construction,33.9209707,-84.482269,Atlanta,Galleria/Marietta 
472,MOXY Denver Downtown,Champa & 15th St,Denver,CO,80202,225,8/9/2024,Planning,39.7451427,-104.995093,Denver,Denver CBD 
473,Renaissance Oklahoma City Downtown,E Sheridan Ave & S Oklahoma Ave,Oklahoma City,OK,73104,204,10/6/2021,In Construction,35.4661511,-97.5103906,Oklahoma City,Oklahoma City CBD 
474,Residence Inn By Marriott New Windsor,Liner Rd,New Windsor,NY,12553,102,9/8/2023,Final Planning,41.4941035,-74.0752796,Lower Hudson Valley,Hudson Valley Area NY 
475,Cambria hotel & suites San Antonio,100 N Main St,San Antonio,TX,78205,177,,Deferred,29.4253655,-98.493542,San Antonio,San Antonio CBD 
476,SpringHill Suites Detroit Sterling Heights,7575 17 Mile Rd,Sterling Heights,MI,48313-4531,93,4/6/2022,In Construction,42.5813552,-83.0336468,Detroit,Warren/Northeast 
477,TownePlace Suites Albertville,1 Keystone Ave NE,Albertville,MN,55301,150,,Abandoned,45.2474468,-93.6773772,Minneapolis,Minneapolis North Area 
478,Unknown Name,2770 Douglas Ave,Brewton,AL,36426,65,8/1/2023,In Construction,31.150518,-87.065615,Alabama South,Alabama South Area 
479,AC Hotels by Marriott Memphis Downtown,46 N Front St,Memphis,TN,38103,154,1/26/2024,Planning,35.1469656,-90.0523822,Memphis,Memphis CBD 
480,AC Hotels by Marriott Sunnyvale Moffett Park,1235 Bordeaux Dr,Sunnyvale,CA,94089,164,7/1/2021,In Construction,37.4127816,-122.0228322,San Jose/Santa Cruz,Santa Clara/Sunnyvale/Milpitas 
481,Autograph Collection Winchester,Buck Rd,Temecula,CA,92591,250,,Planning,33.5558963,-117.0518146,Inland Empire,Riverside Surrounding 
482,element Austin Northwest,10728 Burnet Rd,Austin,TX,78758,150,9/8/2021,In Construction,30.3929899,-97.721798,Austin,Austin Northwest/Arboretum 
483,Embassy Suites by Hilton Houston Sugar Land,Highway 90 & Highway,Sugar Land,TX,77479,174,,Planning,29.6099427,-95.6495191,Houston,Houston Southwest Freeway 
484,Hard Rock New Orleans,1031 Canal St,New Orleans,LA,70112-2505,350,,Deferred,29.955852,-90.072017,New Orleans,New Orleans CBD/French Quarter 
485,Hampton Inn & Suites San Antonio E,6059 I-10 E,San Antonio,TX,78219,81,7/11/2025,In Construction,29.4449955,-98.3672136,San Antonio,San Antonio Northeast 
486,Hampton Inn San Jose Cupertino,1090 S De Anza Blvd,San Jose,CA,95129-3529,89,2/11/2024,Final Planning,37.30632,-122.0316968,San Jose/Santa Cruz,San Jose/Campbell 
487,La Quinta Inns & Suites Houston North Freeway,16311 North Freeway,Houston,TX,77090,91,,Deferred,30.0039661,-95.4277873,Houston,George Bush Airport Area 
488,Staybridge Suites Charlotte - Tyvola,6017 Tyvola Glen Cir,Charlotte,NC,28217,95,6/17/2021,In Construction,35.1659137,-80.8922842,Charlotte,Charlotte I-77 & Southpark 
489,La Quinta Inn & Suites Texarkana,323 E 51st St,Texarkana,AR,71854,92,5/31/2023,Final Planning,33.471687,-94.0425062,Arkansas Area,Arkansas South Area 
490,Canopy by Hilton Delray Beach,SE 1st St & SE 1st Ave,Delray Beach,FL,33444,130,,Unconfirmed,26.459936,-80.071937,Palm Beach ,Boca Raton 
491,La Quinta Inn & Suites San Antonio Stone Oak,Hwy 281 & Marshall Rd,San Antonio,TX,78258,104,4/28/2022,Final Planning,29.6620073,-98.4492519,San Antonio,San Antonio Northeast 
492,La Quinta Inns & Suites Oregon City,400-420 High St,Oregon City,OR,97045,100,10/31/2022,Final Planning,45.3574773,-122.6066003,Portland,Portland I-84/I-205 East 
493,La Quinta Inns & Suites Fredericksburg,2804 Plank Rd,Fredericksburg,VA,22401-4948,100,10/31/2022,Final Planning,38.295089,-77.509971,Washington,I-95 Fredericksburg 
494,La Quinta Inns & Suites Lansdale,000 TBD,Lansdale,PA,19446,100,10/31/2022,Final Planning,40.2332831,-75.2743081,Philadelphia,Philadelphia North Suburbs 
495,La Quinta Inn & Suites Tallahassee,000 Hidden Pond Rd,Tallahassee,FL,32317,100,12/31/2022,Final Planning,30.4698928,-84.1115933,Florida Panhandle,Tallahassee 
496,La Quinta Inn & Suites Tulsa,6030 E Skelly Dr,Tulsa,OK,74135-6406,97,4/30/2023,Final Planning,36.1030728,-95.9095798,Tulsa,Tulsa South/Broken Arrow 
497,La Quinta Inns & Suites Loma Linda,10679 California St,Redlands,CA,92373,120,12/31/2022,Final Planning,34.0599079,-117.2256458,Inland Empire,Riverside & San Bernardino Center 
498,La Quinta Inns & Suites Lake Forest,23221 Lake Forest Dr,Lake Forest,CA,92630,120,9/30/2022,Final Planning,33.6289648,-117.7183864,Orange County,Newport Beach/Dana Point 
499,La Quinta Inns & Suites Jacksonville,8220 Dix Ellis Trl,Jacksonville,FL,32256-8286,70,1/31/2024,Planning,30.2196936,-81.5740649,Jacksonville,Jacksonville Bay Meadows/Butler Blvd 
500,Fairfield Inn & Suites Denver West Golden,28656 Tepees Way,Golden,CO,80401,82,3/10/2023,Final Planning,39.6994231,-105.3249897,Denver,Denver West 
501,Fairfield Inn & Suites Kingman Route 66,3261 E Andy Devine Ave,Kingman,AZ,86401-3701,70,4/21/2023,Final Planning,35.2192857,-114.0092982,Las Vegas,Las Vegas South 
502,Fairfield Inn & Suites Los Angeles Downtown,3031 S Figueroa St,Los Angeles,CA,90007,125,8/26/2023,Final Planning,34.0245518,-118.2791647,Los Angeles,Los Angeles CBD 
503,Fairfield Inn & Suites North Bend,700 S Fork Ave SW,North Bend,WA,98045-9187,100,,Abandoned,47.4904564,-121.7904286,Seattle,Bellevue/East 
504,Fairfield Inn & Suites St Louis Airport,10000 Natural Bridge Rd,Saint Louis,MO,63134-3311,89,9/18/2022,Final Planning,38.7332709,-90.3532426,Saint Louis,St Louis Airport 
505,Westin Tempe,11 E 7th St,Tempe,AZ,85281-3605,290,8/29/2021,In Construction,33.4229076,-111.9389771,Phoenix,Tempe 
506,Hyatt Place Asheville NC Airport,316 Rockwood Rd,Arden,NC,28704,108,9/16/2021,In Construction,35.4445414,-82.5355702,North Carolina West,Asheville NC 
507,Wyndham Valdosta,215 Central Ave,Valdosta,GA,31601,125,3/31/2023,Planning,30.8336248,-83.2742667,Georgia South,Valdosta/Lake Park 
508,Ritz-Carlton Paradise Valley,7000 E Lincoln Dr,Paradise Valley,AZ,85253,215,10/13/2022,In Construction,33.5347012,-111.9310327,Phoenix,Scottsdale 
509,Hilton Garden Inn Baltimore Downtown,25 S Calvert St,Baltimore,MD,21202,151,5/15/2023,In Construction,39.2884499,-76.6119107,Baltimore,Baltimore CBD 
510,Hilton Garden Inn Weatherford,1908 Clear Lake Rd,Weatherford,TX,76086-6410,136,,In Construction,32.7345032,-97.773631,Fort Worth/Arlington,Fort Worth South/West 
511,Hotel Indigo Miramar Beach,585 Grand Blvd,Miramar Beach,FL,32550-1405,182,4/18/2022,Final Planning,30.3796173,-86.3135082,Florida Panhandle,Fort Walton Beach 
512,Hotel Indigo,400 N Church St,Greenville,SC,29601-2103,130,11/1/2023,Planning,34.851881,-82.394153,Greenville/Spartanburg,Greenville 
513,Holiday Inn Fayetteville,3613 Raeford Rd,Fayetteville,NC,28304-2113,107,5/1/2022,Final Planning,35.043394,-78.940647,North Carolina East,Fayetteville MSA NC 
514,Embassy Suites by Hilton Nashville Downtown Convention Center,710 Demonbreun St,Nashville,TN,37203-3940,506,3/1/2022,In Construction,36.157552,-86.7802951,Nashville,Nashville CBD 
515,The 1 Hotel Nashville,710 Demonbreun St,Nashville,TN,37203-3940,215,10/1/2021,In Construction,36.15726,-86.7806427,Nashville,Nashville CBD 
516,Homewood Suites by Hilton Carlisle,50 Carlisle Springs Rd,Carlisle,PA,17013-1953,95,9/15/2021,In Construction,40.2090254,-77.1884533,Harrisburg,Carlisle/Mechanicsburg PA 
517,Comfort Suites Thornton,50 E 136th Ave,Thornton,CO,80241,80,,Abandoned,39.9420427,-104.9859185,Denver,Denver North 
518,Comfort Suites Buford,3239 Sardis Church Rd,Buford,GA,30519,80,,Deferred,34.0765539,-83.9189172,Atlanta,Atlanta Northeast 
519,Comfort Suites Carter Lake,Abbott Dr,Carter Lake,IA,51510,80,1/1/2023,In Construction,41.275754,-95.9175064,Omaha,Omaha CBD/Council Bluffs 
520,Home2 Suites by Hilton Northville Detroit,15075 N Beck Rd,Plymouth,MI,48170-2411,106,6/30/2021,In Construction,42.3916244,-83.5118289,Detroit,Livonia/West 
521,Sleep Inn & Suites Goodland,2631 Enterprise Rd,Goodland,KS,67735-9700,60,12/31/2021,In Construction,39.3336025,-101.724284,Kansas,I-70 Corridor KS 
522,MOXY New Orleans Downtown Warehouse District,744 Saint Charles Ave,New Orleans,LA,70130-3714,96,,Deferred,29.9461245,-90.0713107,New Orleans,New Orleans CBD/French Quarter 
523,MOXY New York City Bowery,151 Bowery,New York,NY,10002,296,9/6/2022,In Construction,40.7190988,-73.9941309,New York,Village/Soho/Tribeca 
524,Sleep Inn Scottsbluff,3601 Ave 1,Scottsbluff,NE,69361,55,12/31/2022,Planning,41.8825348,-103.6748855,Nebraska,Nebraska Area 
525,Sleep Inn & Suites Kearney,104 3rd Ave,Kearney,NE,68845,45,12/31/2022,In Construction,40.6718012,-99.0893153,Nebraska,I-80 Corridor NE 
526,MainStay Suites Kearney,104 3rd Ave,Kearney,NE,68845-7856,35,12/31/2022,In Construction,40.6716315,-99.0904287,Nebraska,I-80 Corridor NE 
527,Comfort Inn & Suites Grants,I-40 & Exit 85 NE,Grants,NM,87020,55,,Deferred,35.1276947,-107.8249892,New Mexico North,Gallup/Grants 
528,Sleep Inn & Suites Oklahoma City,3654 N Bryant Ave,Forest Park,OK,73121-2206,50,,Planning,35.5056504,-97.4599731,Oklahoma City,Oklahoma City North 
529,Residence Inn Los Angeles Downtown,3031 S Figueroa St,Los Angeles,CA,90007,150,10/25/2023,In Construction,34.0244288,-118.27899,Los Angeles,Los Angeles CBD 
530,Residence Inn Miami Downtown,1741 SW 2nd Ave,Miami,FL,33129,204,10/23/2023,Final Planning,25.7588505,-80.1990171,Miami,Miami CBD/North 
531,Residence Inn Detroit Metro Airport Romulus,7859 Merriman Rd,Romulus,MI,48174-1912,127,6/17/2023,Final Planning,42.2469802,-83.3471716,Detroit,Romulus/Airport 
532,Home2 Suites by Hilton Tulsa Midtown,4524 E Skelly Dr,Tulsa,OK,74135-3225,85,10/11/2025,Final Planning,36.093011,-95.924537,Tulsa,Tulsa South/Broken Arrow 
533,Sleep Inn & Suites Austin,3400 Comsouth Dr,Austin,TX,78744,70,,Deferred,30.2123034,-97.72036,Austin,South Austin/Airport 
534,Comfort Suites Shenandoah,19315 David Memorial Dr,Shenandoah,TX,77385-8795,80,1/1/2023,In Construction,30.177948,-95.448852,Houston,Houston North/Woodlands 
535,Comfort Inn & Suites Jacksboro,101 Quail Run St,Jacksboro,TX,76458-1215,65,,In Construction,33.2319662,-98.1641165,Texas West,Central Texas Area 
536,Comfort Inn & Suites Corpus Christi,I-70 & McKinzie Rd,Corpus Christi,TX,78410,70,,Deferred,27.8470985,-97.5707017,Texas South,Corpus Christi 
537,Holiday Inn Express & Suites Malta,530 Rte 67,Malta,NY,12020,96,6/16/2022,Final Planning,42.971501,-73.7997845,Albany,Latham/Saratoga Springs 
538,Holiday Inn Express & Suites Plymouth Meeting,300 Lee Dr,Plymouth Meeting,PA,19462,107,,Deferred,40.1090574,-75.2936226,Philadelphia,Philadelphia North Suburbs 
539,Holiday Inn Express & Suites West Springfield,764 Riverdale St,West Springfield,MA,01089-4619,106,8/23/2023,Final Planning,42.124799,-72.626921,Massachusetts Area,Springfield MA 
540,SpringHill Suites San Diego Del Mar,3501 Valley Centre Dr,San Diego,CA,92130,112,12/28/2023,Planning,32.9340455,-117.2392219,San Diego,San Diego/La Jolla 
541,Cambria Hotel & Suites Seattle,1915 3rd Ave,Seattle,WA,98101-1104,134,,Deferred,47.6117678,-122.3403555,Seattle,Seattle CBD 
542,Springhill Suites West Palm Beach Downtown,412 Gardenia St,West Palm Beach,FL,33401,97,1/1/2023,Planning,26.7092813,-80.0548455,Palm Beach ,West Palm Beach 
543,SpringHill Suites Woodbridge,1000 US Highway 9 N,Woodbridge,NJ,07095-1215,100,6/30/2021,In Construction,40.5448364,-74.2908673,Central New Jersey,Brunswick/Edison Area NJ 
544,TownePlace Suites Kingman,3150 E Andy Devine Ave,Kingman,AZ,86401-4209,75,4/21/2023,Final Planning,35.2146311,-114.0117666,Las Vegas,Las Vegas South 
545,Hotel Hamilton,400 S Cedar Crest Blvd,Allentown,PA,18103,100,,Final Planning,40.5817449,-75.5235451,Allentown & Reading,Allentown PA 
546,Holiday Inn  Jamaica,16520 Archer Ave,Jamaica,NY,11433-1150,192,3/24/2022,In Construction,40.7040757,-73.792935,New York,JFK/Jamaica 
547,Spring Street Hotel,633 S Spring St,Los Angeles,CA,90014-1902,170,9/30/2022,Final Planning,34.0453388,-118.2519997,Los Angeles,Los Angeles CBD 
548,SORA West,46 Fayette St,Conshohocken,PA,19428,165,,In Construction,40.0731167,-75.3072923,Philadelphia,Philadelphia West Suburbs 
549,Hotel RL Long Island City,38-15 9th St,Long Island City,NY,11101-6141,180,,Deferred,40.7585909,-73.9433757,New York,East River-Queens/Brooklyn West 
550,17th & Blake Hotel,1509 17th St,Denver,CO,80202,200,,Abandoned,39.7518635,-104.9980178,Denver,Denver CBD 
551,SLS LUX Hotel & Residences Washington DC,901 5th St NW,Washington,DC,20001-2501,198,,Deferred,38.9015713,-77.0186076,Washington,Washington DC CBD 
552,Comfort Inn & Suites Beaver Falls,104 Pappan Business Dr,Beaver Falls,PA,15010-1261,92,5/15/2022,In Construction,40.7753251,-80.3822405,Pittsburgh,Pittsburgh West/Airport 
553,Hampton Inn & Suites Fort Dodge,302 31st St,Fort Dodge,IA,50501,83,12/13/2022,Planning,42.5017717,-94.1526334,Iowa Area,Fort Dodge/Ames 
554,Holiday Inn Express & Suites Schaumburg,30 N Martingale Rd,Schaumburg,IL,60173,87,6/28/2022,Final Planning,42.0280821,-88.0327902,Chicago,Chicago Northwest 
555,Holiday Inn Express & Suites Centennial,7700 E Peakview Ave,Centennial,CO,80111-6833,106,6/22/2022,Abandoned,39.5983003,-104.8982048,Denver,Denver Tech Center 
556,Staybridge Suites Nashville SE Murfreesboro,1233 Fortress Blvd,Murfreesboro,TN,37128-5524,101,6/9/2021,In Construction,35.8678656,-86.4611961,Nashville,I-24/Murfreesboro 
557,Hilton Atlanta Hartsfield-Jackson Airport,6000 N Terminal Pky,Atlanta,GA,30320,541,,Unconfirmed,33.641113,-84.448396,Atlanta,Atlanta Airport 
558,Staybridge Suites Battle Creek,0 Harper Village Dr,Battle Creek,MI,49014,85,6/1/2022,Final Planning,42.2660047,-85.1707728,Michigan South,Kalamazoo/Battle Creek 
559,Staybridge Suites Bakersfield,8211 Brimhall Rd,Bakersfield,CA,93308,104,11/27/2022,Final Planning,35.368252,-119.0941967,California South/Central,Bakersfield 
560,Candlewood Suites Louisville,6600 Paramount Park Dr,Louisville,KY,40213-3571,100,4/18/2022,Final Planning,38.1536097,-85.713589,Louisville,Louisville Airport Area 
561,Courtyard Washington DC Northeast,200 Michigan Ave NE,Washington,DC,20017,105,,Abandoned,38.930977,-77.004443,Washington,Washington DC CBD 
562,Residence Inn Washington DC Northeast,200 Michigan Ave NE,Washington,DC,20017,161,,Abandoned,38.931031,-77.004964,Washington,Washington DC CBD 
563,Residence Inn Houston Intercontinental Airport,3300 N Sam Houston Pky E,Houston,TX,77032-3862,100,8/18/2023,Final Planning,29.9381915,-95.3325124,Houston,George Bush Airport Area 
564,SpringHill Suites Pleasanton,7280 Johnson Dr,Pleasanton,CA,94588,112,2/23/2023,Final Planning,37.69233,-121.9161589,Oakland,Pleasanton/Livermore 
565,TownePlace Suites Pleasanton,7280 Johnson Dr,Pleasanton,CA,94588-8005,119,2/23/2023,Final Planning,37.6924776,-121.9172316,Oakland,Pleasanton/Livermore 
566,Cambria Hotels Louisville Downtown,120 S Floyd St,Louisville,KY,40202-1206,128,8/1/2021,In Construction,38.2546999,-85.7483747,Louisville,Louisville CBD 
567,Ramkota Hotel & Convention Center Deadwood,100 Tatanka Dr,Deadwood,SD,57732-4000,320,,Abandoned,44.396536,-103.7114554,South Dakota,South Dakota Area 
568,Courtyard Austin Dripping Springs,1002 Rob Shelton Blvd,Dripping Springs,TX,78620,90,8/18/2021,In Construction,30.1903239,-98.0832914,Austin,San Marcos/Austin Surrounding 
569,Homewood Suites by Hilton Oklahoma City Remington Park,SWC NE 50th St & I-35 Hwy,Oklahoma City,OK,73111,81,,Deferred,35.5212984,-97.4608793,Oklahoma City,Oklahoma City North 
570,Home2 Suites by Hilton Redding,5184 Caterpillar Rd,Redding,CA,96003,92,10/22/2021,In Construction,40.6271122,-122.3689811,California North,Redding/Chico 
571,Canopy by Hilton Denver Downtown,801 15th St,Denver,CO,80202-3219,230,,Deferred,39.745277,-104.994302,Denver,Denver CBD 
572,"The Hotel Anne Savannah, Curio Collection by Hilton",NWQ E River St & Bay St,Savannah,GA,31401,120,7/16/2022,Final Planning,32.0793241,-81.0835014,Savannah,Savannah Historic District 
573,Holiday Inn Express & Suites Coppell,1125 Northpoint Dr,Coppell,TX,75019-3831,125,6/2/2022,Final Planning,32.9673028,-97.0306137,Dallas,Denton/Lewisville/McKinney 
574,Holiday Inn Express & Suites Plano,3340 N Central Pky,Plano,TX,75074,101,10/28/2021,In Construction,33.0404252,-96.7006217,Dallas,East Plano/Richardson 
575,Candlewood Suites Nashville Airport,720 Ermac Dr,Nashville,TN,37214-5007,100,4/11/2023,Final Planning,36.14553,-86.689881,Nashville,Nashville Airport 
576,Four Seasons Resort & Residences Napa Valley,400 Silverado Trl,Calistoga,CA,94515-1809,85,7/1/2021,In Construction,38.583563,-122.5662078,California North,Napa Valley 
577,La Quinta Inns & Suites Nashville Fairgrounds,4697 Trousdale Dr,Nashville,TN,37204-4584,103,,Planning,36.0803904,-86.7599072,Nashville,Nashville CBD 
578,La Quinta Inns & Suites Orland,4455 Commerce Ln,Orland,CA,95963,82,8/31/2022,Final Planning,39.7458442,-122.2026483,California North,California Rural North Area 
579,La Quinta Inns & Suites Corpus Christi Shoreline,401 S Shoreline Blvd,Corpus Christi,TX,78401-2813,94,1/31/2023,Final Planning,27.7883511,-97.3947544,Texas South,Corpus Christi 
580,aloft Hotel Lubbock,2901 Iola Ave,Lubbock,TX,79407,136,7/6/2021,In Construction,33.5677473,-101.9484044,Texas North,Lubbock 
581,element Asheville Downtown,62 College Pl,Asheville,NC,28801-2407,100,6/8/2021,In Construction,35.599577,-82.541715,North Carolina West,Asheville NC 
582,aloft Hotel Savannah Airport,1423 Benton Blvd,Pooler,GA,31322,129,5/19/2021,In Construction,32.14532,-81.2480451,Savannah,Savannah Airport 
583,aloft Hotel Dallas DFW Airport Grapevine,1155 Northpoint Dr,Coppell,TX,75019,140,6/30/2021,In Construction,32.9665137,-97.0305462,Dallas,Denton/Lewisville/McKinney 
584,Comfort Suites Newnan,45 Bledsoe Rd,Newnan,GA,30265-1096,75,8/30/2021,In Construction,33.3988721,-84.7513687,Atlanta,Atlanta South 
585,Comfort Inn & Suites Ithaca,635 Elmira Rd,Ithaca,NY,14850-8745,70,6/30/2023,Planning,42.410587,-76.5380481,New York State,Ithaca/Elmira NY 
586,Comfort Suites Mechanicsburg,121 Gettysburg Pike,Mechanicsburg,PA,17055-5605,80,5/31/2024,Final Planning,40.1812694,-76.9865266,Harrisburg,Carlisle/Mechanicsburg PA 
587,"The Hearst Hotel, Auberge Resorts Collection San Francisco",5 3rd St,San Francisco,CA,94103-3202,150,1/1/2023,Planning,37.7874765,-122.4032008,San Francisco/San Mateo,San Francisco Market St 
588,TownePlace Suites By Marriott Marion,1008 Halfway Rd,Marion,IL,62959-4929,76,11/9/2022,Final Planning,37.7403291,-88.9660781,Illinois South,Marion/I-64 & South 
589,Holiday Inn Express & Suites Hazlet,2870 New Jersey 35,Hazlet,NJ,7730,100,,Deferred,40.4164429,-74.1710821,Central New Jersey,Princeton/Central 
590,Holiday Inn Express & Suites Euless,971 E Harwood Rd,Euless,TX,76039,97,1/29/2023,Final Planning,32.8527663,-97.0669491,Fort Worth/Arlington,Bedford/Grapevine 
591,Residence Inn Jackson Pearl,645 S Pearson Rd,Pearl,MS,39208-5915,101,6/17/2021,In Construction,32.2679284,-90.1283545,Jackson,Jackson CBD/South MS 
592,Fairfield Inn & Suites Ashtabula,Sidley & State Road 45 Ct,Austinburg,OH,44010-9804,82,6/18/2021,In Construction,41.7828442,-80.8533501,Cleveland,Cleveland Surrounding Areas 
593,Embassy Suites by Hilton San Jose Airport,1740-1750 N 1st St,San Jose,CA,95112,174,9/25/2022,Planning,37.3689553,-121.9140566,San Jose/Santa Cruz,San Jose/Campbell 
594,SpringHill Suites Pittsburgh Cranberry Township,McElroy Rd,Cranberry Township,PA,16066,114,5/1/2025,Planning,40.689392,-80.093705,Pittsburgh,Pittsburgh North Area 
595,Hampton Inn by Hilton El Cerrito,11615 San Pablo Ave,El Cerrito,CA,94530,124,12/28/2023,Final Planning,37.9256266,-122.3190585,Oakland,Oakland Northeast/Concord 
596,Hampton Inn & Suites by Hilton Pittsboro,1 Russet Run Rd,Pittsboro,NC,27312,115,7/3/2023,Planning,35.7560505,-79.1631653,Raleigh/Durham/Chapel Hill,Raleigh Rural Areas 
597,Hampton Inn by Hilton Menlo Park,1704 El Camino Real,Menlo Park,CA,94027-4127,67,,Deferred,37.4591841,-122.1926702,San Francisco/San Mateo,San Mateo/Redwood City 
598,Hampton Inn & Suites Port Orange I 95,5811 S Williamson Blvd,Port Orange,FL,32128,100,,Deferred,29.1047454,-81.0304836,Daytona Beach,Daytona Area 
599,Hilton Garden Inn Corpus Christi Downtown,TBD US HIghway 181,Portland,TX,78374,110,8/7/2023,Final Planning,27.8942733,-97.311072,Texas South,Corpus Christi 
600,Hilton Garden Inn Detroit Auburn Hills,3900 Baldwin Rd,Auburn Hills,MI,48326-1219,114,2/19/2025,Final Planning,42.6993798,-83.3032379,Detroit,Auburn Hills/Madison Heights 
601,Homewood Suites by Hilton Corpus Christi Downtown,SWQ Highway 181 & N Port Ave,Corpus Christi,TX,78401,86,7/31/2023,Final Planning,27.808575,-97.39802,Texas South,Corpus Christi 
602,Home2 Suites by Hilton Tulsa Broken Arrow,NEQ Broken Arrow Expy & N Elm Pl,Broken Arrow,OK,74012,97,6/5/2023,Planning,36.0723814,-95.7940302,Tulsa,Tulsa South/Broken Arrow 
603,Home2 Suites by Hilton Milpitas,1301 California Cir,Milpitas,CA,95035,150,6/13/2023,Final Planning,37.4470433,-121.9200639,San Jose/Santa Cruz,Santa Clara/Sunnyvale/Milpitas 
604,Home2 Suites by Hilton Vidalia,154 Mose Coleman Dr,Vidalia,GA,30474-8677,82,8/15/2021,In Construction,32.2013059,-82.3565178,Georgia South,Georgia South Area 
605,Tru by Hilton Ridgeland Jackson,Sunnybrook Rd,Ridgeland,MS,39157,98,3/7/2024,Final Planning,32.4459155,-90.1418322,Jackson,Jackson I-55 North/Clinton MS 
606,Comfort Inn & Suites Gallatin,0 Tulip Poplar Dr,Gallatin,TN,37066,77,5/31/2021,In Construction,36.372684,-86.4830936,Nashville,Nashville Other Areas 
607,Hyatt Place Hot Springs,900 Market St,Hot Springs,AR,71901,106,7/20/2023,Final Planning,34.5066317,-93.0529763,Arkansas Area,Arkansas South Area 
608,Hyatt Place Paso Robles,1955 Theatre Dr,Paso Robles,CA,93446-9651,134,4/18/2024,Final Planning,35.5875769,-120.6968218,California Central Coast,San Luis Obispo/Paso Robles 
609,Crowne Plaza,600 W Talmadge Rd,Kearney,NE,68845-7818,172,12/21/2021,In Construction,40.6742025,-99.091609,Nebraska,I-80 Corridor NE 
610,Staybridge Suites Houston,8833 Airport Blvd,Houston,TX,77061-3487,121,6/21/2022,Final Planning,29.6526702,-95.2586391,Houston,Houston Hobby Airport/NASA 
611,Holiday Inn Piscataway,21 Kingsbridge Rd,Piscataway,NJ,8854,206,7/31/2022,Final Planning,40.54381,-74.499894,Central New Jersey,Brunswick/Edison Area NJ 
612,Candlewood Suites Lewisville,760 E Vista Ridge Mall Dr,Lewisville,TX,75067-8339,89,,Final Planning,33.000139,-96.9659631,Dallas,Denton/Lewisville/McKinney 
613,Holiday Inn Independence,19411 E Valley View Pky,Independence,MO,64055,120,,Deferred,39.037261,-94.3498908,Kansas City,Kansas City Surrounding MO 
614,Holiday Inn Express Hawthorne,5151 W El Segundo Blvd,Hawthorne,CA,90250-4139,90,5/20/2022,Final Planning,33.9168081,-118.3689368,Los Angeles,South Bay 
615,Holiday Inn Biloxi,1712 Beach Blvd,Biloxi,MS,39531,143,7/15/2022,Final Planning,30.3944385,-88.9393947,Mississippi,Biloxi/Gulfport 
616,Holiday Inn Express Guntersville,7001 Val Monte Dr,Guntersville,AL,35976,115,1/2/2023,Planning,34.3302524,-86.304675,Alabama North,Alabama North Area 
617,Holiday Inn Express Las Vegas,2550 S Rancho Dr,Las Vegas,NV,89102,117,5/1/2022,Final Planning,36.1412525,-115.1750144,Las Vegas,Las Vegas North 
618,Cambria Hotel & Suites Los Angeles,926 James M Wood Blvd,Los Angeles,CA,90015-1356,225,4/1/2022,In Construction,34.0471683,-118.2656795,Los Angeles,Los Angeles CBD 
619,Ascend Collection Hotel Boardwalk,940 Monroe Ave NW,Grand Rapids,MI,49503,32,,Deferred,42.97951,-85.67177,Grand Rapids & Michigan West,Grand Rapids MI 
620,Sleep Inn North Platte,I 80 Exit 179,North Platte,NE,69101,40,10/31/2022,In Construction,41.1072023,-100.7285923,Nebraska,I-80 Corridor NE 
621,MainStay Suites North Platte,2650 Eagles Wing Pl,North Platte,NE,69101,40,10/31/2023,In Construction,41.1069809,-100.7274377,Nebraska,I-80 Corridor NE 
622,Sleep Inn Bronx,1164 Wheeler Ave,Bronx,NY,10472-3306,76,10/31/2021,In Construction,40.8280502,-73.8796959,New York,New York City Area 
623,MainStay Suites Bronx,510 E 185th St,Bronx,NY,10458-7869,27,7/1/2021,In Construction,40.8557499,-73.8913307,New York,New York City Area 
624,Sleep Inn Bronx,510 E 185th St,Bronx,NY,10458-7869,61,10/1/2021,In Construction,40.8557839,-73.8914405,New York,New York City Area 
625,Comfort Suites Warrington,2298 Bristol Rd,Warrington,PA,18976-2821,85,,Abandoned,40.2501043,-75.1316523,Philadelphia,Philadelphia North Suburbs 
626,Sleep Inn Florence,503 Woody Jones Blvd,Florence,SC,29501-7417,40,12/31/2021,In Construction,34.185527,-79.830825,South Carolina Area,Florence/Dillon 
627,MainStay Suites Florence,503 Woody Jones Blvd,Florence,SC,29501,40,12/31/2021,In Construction,34.1853003,-79.8317208,South Carolina Area,Florence/Dillon 
628,Comfort Inn & Suites Nashville,627 Old Hickory Blvd,Nashville,TN,37209,85,8/30/2021,In Construction,36.1088555,-86.9232778,Nashville,Nashville CBD 
629,Hampton by Hilton Union City,2100 W Reelfoot Ave,Union City,TN,38261,90,9/11/2021,In Construction,36.4049191,-89.0850461,Tennessee Area,Tennessee West Area 
630,Hampton Inn Syracuse Downtown Armory Square,231 Walton St,Syracuse,NY,13202-1885,107,1/17/2024,Planning,43.0476624,-76.1572431,Syracuse,Syracuse Hancock Airport & CBD 
631,Fairfield Inn & Suites Paso Robles,2940 Union Rd,Paso Robles,CA,93446-8391,105,3/19/2023,Final Planning,35.6427293,-120.6502594,California Central Coast,San Luis Obispo/Paso Robles 
632,Hilton Garden Inn Fort Worth Downtown,607 Jones St,Fort Worth,TX,76102,162,4/28/2023,Final Planning,32.7548361,-97.3279833,Fort Worth/Arlington,Fort Worth CBD/I-820 West 
